{
	"type":"FeatureCollection",
	"features":[
		{
			"type":"Feature",
			"geometry":{
				"type":"Point",
				"coordinates":[116.40076,39.903194]
			},
			"properties":{
				"date":"2020-01-26",
				"country":"中国",
				"province":"北京市",
				"city":"外地来京",
				"confirmed":12,
				"suspected":0,
				"cured":0,
				"dead":0
			}
		},
		{
			"type":"Feature",
			"geometry":{
				"type":"Point",
				"coordinates":[116.40976,39.927197]
			},
			"properties":{
				"date":"2020-01-26",
				"country":"中国",
				"province":"北京市",
				"city":"东城区",
				"confirmed":1,
				"suspected":0,
				"cured":0,
				"dead":0
			}
		},
		{
			"type":"Feature",
			"geometry":{
				"type":"Point",
				"coordinates":[116.35979,39.910824]
			},
			"properties":{
				"date":"2020-01-26",
				"country":"中国",
				"province":"北京市",
				"city":"西城区",
				"confirmed":5,
				"suspected":0,
				"cured":0,
				"dead":0
			}
		},
		{
			"type":"Feature",
			"geometry":{
				"type":"Point",
				"coordinates":[116.436806,39.91923]
			},
			"properties":{
				"date":"2020-01-26",
				"country":"中国",
				"province":"北京市",
				"city":"朝阳区",
				"confirmed":11,
				"suspected":0,
				"cured":0,
				"dead":0
			}
		},
		{
			"type":"Feature",
			"geometry":{
				"type":"Point",
				"coordinates":[116.27995,39.85736]
			},
			"properties":{
				"date":"2020-01-26",
				"country":"中国",
				"province":"北京市",
				"city":"丰台区",
				"confirmed":4,
				"suspected":0,
				"cured":0,
				"dead":0
			}
		},
		{
			"type":"Feature",
			"geometry":{
				"type":"Point",
				"coordinates":[116.21694,39.904472]
			},
			"properties":{
				"date":"2020-01-26",
				"country":"中国",
				"province":"北京市",
				"city":"石景山区",
				"confirmed":2,
				"suspected":0,
				"cured":0,
				"dead":0
			}
		},
		{
			"type":"Feature",
			"geometry":{
				"type":"Point",
				"coordinates":[116.29292,39.95804]
			},
			"properties":{
				"date":"2020-01-26",
				"country":"中国",
				"province":"北京市",
				"city":"海淀区",
				"confirmed":16,
				"suspected":0,
				"cured":0,
				"dead":0
			}
		},
		{
			"type":"Feature",
			"geometry":{
				"type":"Point",
				"coordinates":[116.651115,39.908695]
			},
			"properties":{
				"date":"2020-01-26",
				"country":"中国",
				"province":"北京市",
				"city":"通州区",
				"confirmed":6,
				"suspected":0,
				"cured":0,
				"dead":0
			}
		},
		{
			"type":"Feature",
			"geometry":{
				"type":"Point",
				"coordinates":[116.64909,40.128986]
			},
			"properties":{
				"date":"2020-01-26",
				"country":"中国",
				"province":"北京市",
				"city":"顺义区",
				"confirmed":1,
				"suspected":0,
				"cured":0,
				"dead":0
			}
		},
		{
			"type":"Feature",
			"geometry":{
				"type":"Point",
				"coordinates":[116.224915,40.219456]
			},
			"properties":{
				"date":"2020-01-26",
				"country":"中国",
				"province":"北京市",
				"city":"昌平区",
				"confirmed":7,
				"suspected":0,
				"cured":0,
				"dead":0
			}
		},
		{
			"type":"Feature",
			"geometry":{
				"type":"Point",
				"coordinates":[116.33585,39.725574]
			},
			"properties":{
				"date":"2020-01-26",
				"country":"中国",
				"province":"北京市",
				"city":"大兴区",
				"confirmed":3,
				"suspected":0,
				"cured":0,
				"dead":0
			}
		},
		{
			"type":"Feature",
			"geometry":{
				"type":"Point",
				"coordinates":[117.19671,39.086796]
			},
			"properties":{
				"date":"2020-01-26",
				"country":"中国",
				"province":"天津市",
				"city":"外地来津",
				"confirmed":2,
				"suspected":0,
				"cured":0,
				"dead":0
			}
		},
		{
			"type":"Feature",
			"geometry":{
				"type":"Point",
				"coordinates":[117.20872,39.116295]
			},
			"properties":{
				"date":"2020-01-26",
				"country":"中国",
				"province":"天津市",
				"city":"和平区",
				"confirmed":1,
				"suspected":0,
				"cured":0,
				"dead":0
			}
		},
		{
			"type":"Feature",
			"geometry":{
				"type":"Point",
				"coordinates":[117.24573,39.12721]
			},
			"properties":{
				"date":"2020-01-26",
				"country":"中国",
				"province":"天津市",
				"city":"河东区",
				"confirmed":2,
				"suspected":0,
				"cured":0,
				"dead":0
			}
		},
		{
			"type":"Feature",
			"geometry":{
				"type":"Point",
				"coordinates":[117.14361,39.13697]
			},
			"properties":{
				"date":"2020-01-26",
				"country":"中国",
				"province":"天津市",
				"city":"南开区",
				"confirmed":2,
				"suspected":0,
				"cured":0,
				"dead":0
			}
		},
		{
			"type":"Feature",
			"geometry":{
				"type":"Point",
				"coordinates":[117.19069,39.14665]
			},
			"properties":{
				"date":"2020-01-26",
				"country":"中国",
				"province":"天津市",
				"city":"河北区",
				"confirmed":5,
				"suspected":0,
				"cured":0,
				"dead":0
			}
		},
		{
			"type":"Feature",
			"geometry":{
				"type":"Point",
				"coordinates":[117.00183,39.14138]
			},
			"properties":{
				"date":"2020-01-26",
				"country":"中国",
				"province":"天津市",
				"city":"西青区",
				"confirmed":1,
				"suspected":0,
				"cured":0,
				"dead":0
			}
		},
		{
			"type":"Feature",
			"geometry":{
				"type":"Point",
				"coordinates":[117.70473,39.002205]
			},
			"properties":{
				"date":"2020-01-26",
				"country":"中国",
				"province":"天津市",
				"city":"滨海新区",
				"confirmed":1,
				"suspected":0,
				"cured":0,
				"dead":0
			}
		},
		{
			"type":"Feature",
			"geometry":{
				"type":"Point",
				"coordinates":[114.456406,38.045116]
			},
			"properties":{
				"date":"2020-01-26",
				"country":"中国",
				"province":"河北省",
				"city":"石家庄市",
				"confirmed":7,
				"suspected":0,
				"cured":0,
				"dead":0
			}
		},
		{
			"type":"Feature",
			"geometry":{
				"type":"Point",
				"coordinates":[114.53327,36.625523]
			},
			"properties":{
				"date":"2020-01-26",
				"country":"中国",
				"province":"河北省",
				"city":"邯郸市",
				"confirmed":2,
				"suspected":1,
				"cured":0,
				"dead":0
			}
		},
		{
			"type":"Feature",
			"geometry":{
				"type":"Point",
				"coordinates":[115.01904,37.070927]
			},
			"properties":{
				"date":"2020-01-26",
				"country":"中国",
				"province":"河北省",
				"city":"邢台市",
				"confirmed":1,
				"suspected":3,
				"cured":0,
				"dead":0
			}
		},
		{
			"type":"Feature",
			"geometry":{
				"type":"Point",
				"coordinates":[115.45868,38.873]
			},
			"properties":{
				"date":"2020-01-26",
				"country":"中国",
				"province":"河北省",
				"city":"保定市",
				"confirmed":3,
				"suspected":0,
				"cured":0,
				"dead":0
			}
		},
		{
			"type":"Feature",
			"geometry":{
				"type":"Point",
				"coordinates":[117.95667,40.94992]
			},
			"properties":{
				"date":"2020-01-26",
				"country":"中国",
				"province":"河北省",
				"city":"承德市",
				"confirmed":1,
				"suspected":0,
				"cured":0,
				"dead":0
			}
		},
		{
			"type":"Feature",
			"geometry":{
				"type":"Point",
				"coordinates":[116.83321,38.30384]
			},
			"properties":{
				"date":"2020-01-26",
				"country":"中国",
				"province":"河北省",
				"city":"沧州市",
				"confirmed":2,
				"suspected":3,
				"cured":0,
				"dead":1
			}
		},
		{
			"type":"Feature",
			"geometry":{
				"type":"Point",
				"coordinates":[116.678085,39.5365]
			},
			"properties":{
				"date":"2020-01-26",
				"country":"中国",
				"province":"河北省",
				"city":"廊坊市",
				"confirmed":2,
				"suspected":2,
				"cured":0,
				"dead":0
			}
		},
		{
			"type":"Feature",
			"geometry":{
				"type":"Point",
				"coordinates":[115.66312,37.738262]
			},
			"properties":{
				"date":"2020-01-26",
				"country":"中国",
				"province":"河北省",
				"city":"衡水市",
				"confirmed":0,
				"suspected":2,
				"cured":0,
				"dead":0
			}
		},
		{
			"type":"Feature",
			"geometry":{
				"type":"Point",
				"coordinates":[112.5437,37.87018]
			},
			"properties":{
				"date":"2020-01-26",
				"country":"中国",
				"province":"山西省",
				"city":"太原市",
				"confirmed":2,
				"suspected":0,
				"cured":0,
				"dead":0
			}
		},
		{
			"type":"Feature",
			"geometry":{
				"type":"Point",
				"coordinates":[113.292984,40.0751]
			},
			"properties":{
				"date":"2020-01-26",
				"country":"中国",
				"province":"山西省",
				"city":"大同市",
				"confirmed":1,
				"suspected":0,
				"cured":0,
				"dead":0
			}
		},
		{
			"type":"Feature",
			"geometry":{
				"type":"Point",
				"coordinates":[113.5746,37.856197]
			},
			"properties":{
				"date":"2020-01-26",
				"country":"中国",
				"province":"山西省",
				"city":"阳泉市",
				"confirmed":1,
				"suspected":0,
				"cured":0,
				"dead":0
			}
		},
		{
			"type":"Feature",
			"geometry":{
				"type":"Point",
				"coordinates":[113.10934,36.19533]
			},
			"properties":{
				"date":"2020-01-26",
				"country":"中国",
				"province":"山西省",
				"city":"长治市",
				"confirmed":1,
				"suspected":0,
				"cured":0,
				"dead":0
			}
		},
		{
			"type":"Feature",
			"geometry":{
				"type":"Point",
				"coordinates":[112.426155,39.32964]
			},
			"properties":{
				"date":"2020-01-26",
				"country":"中国",
				"province":"山西省",
				"city":"朔州市",
				"confirmed":2,
				"suspected":0,
				"cured":0,
				"dead":0
			}
		},
		{
			"type":"Feature",
			"geometry":{
				"type":"Point",
				"coordinates":[112.746506,37.686417]
			},
			"properties":{
				"date":"2020-01-26",
				"country":"中国",
				"province":"山西省",
				"city":"晋中市",
				"confirmed":2,
				"suspected":0,
				"cured":0,
				"dead":0
			}
		},
		{
			"type":"Feature",
			"geometry":{
				"type":"Point",
				"coordinates":[111.00119,35.027138]
			},
			"properties":{
				"date":"2020-01-26",
				"country":"中国",
				"province":"山西省",
				"city":"运城市",
				"confirmed":2,
				"suspected":0,
				"cured":0,
				"dead":0
			}
		},
		{
			"type":"Feature",
			"geometry":{
				"type":"Point",
				"coordinates":[111.51278,36.088024]
			},
			"properties":{
				"date":"2020-01-26",
				"country":"中国",
				"province":"山西省",
				"city":"临汾市",
				"confirmed":1,
				"suspected":0,
				"cured":0,
				"dead":0
			}
		},
		{
			"type":"Feature",
			"geometry":{
				"type":"Point",
				"coordinates":[111.137634,37.51762]
			},
			"properties":{
				"date":"2020-01-26",
				"country":"中国",
				"province":"山西省",
				"city":"吕梁市",
				"confirmed":1,
				"suspected":0,
				"cured":0,
				"dead":0
			}
		},
		{
			"type":"Feature",
			"geometry":{
				"type":"Point",
				"coordinates":[109.8343,40.655952]
			},
			"properties":{
				"date":"2020-01-26",
				"country":"中国",
				"province":"内蒙古自治区",
				"city":"包头市",
				"confirmed":2,
				"suspected":0,
				"cured":0,
				"dead":0
			}
		},
		{
			"type":"Feature",
			"geometry":{
				"type":"Point",
				"coordinates":[118.88283,42.253765]
			},
			"properties":{
				"date":"2020-01-26",
				"country":"中国",
				"province":"内蒙古自治区",
				"city":"赤峰市",
				"confirmed":1,
				"suspected":0,
				"cured":0,
				"dead":0
			}
		},
		{
			"type":"Feature",
			"geometry":{
				"type":"Point",
				"coordinates":[122.23845,43.64974]
			},
			"properties":{
				"date":"2020-01-26",
				"country":"中国",
				"province":"内蒙古自治区",
				"city":"通辽市",
				"confirmed":1,
				"suspected":0,
				"cured":0,
				"dead":0
			}
		},
		{
			"type":"Feature",
			"geometry":{
				"type":"Point",
				"coordinates":[109.77528,39.607285]
			},
			"properties":{
				"date":"2020-01-26",
				"country":"中国",
				"province":"内蒙古自治区",
				"city":"鄂尔多斯市",
				"confirmed":2,
				"suspected":0,
				"cured":0,
				"dead":0
			}
		},
		{
			"type":"Feature",
			"geometry":{
				"type":"Point",
				"coordinates":[119.75866,49.21016]
			},
			"properties":{
				"date":"2020-01-26",
				"country":"中国",
				"province":"内蒙古自治区",
				"city":"呼伦贝尔市",
				"confirmed":2,
				"suspected":0,
				"cured":0,
				"dead":0
			}
		},
		{
			"type":"Feature",
			"geometry":{
				"type":"Point",
				"coordinates":[122.031876,46.080128]
			},
			"properties":{
				"date":"2020-01-26",
				"country":"中国",
				"province":"内蒙古自治区",
				"city":"兴安盟",
				"confirmed":1,
				"suspected":0,
				"cured":0,
				"dead":0
			}
		},
		{
			"type":"Feature",
			"geometry":{
				"type":"Point",
				"coordinates":[116.04116,43.930912]
			},
			"properties":{
				"date":"2020-01-26",
				"country":"中国",
				"province":"内蒙古自治区",
				"city":"锡林郭勒盟",
				"confirmed":2,
				"suspected":1,
				"cured":0,
				"dead":0
			}
		},
		{
			"type":"Feature",
			"geometry":{
				"type":"Point",
				"coordinates":[123.458626,41.675217]
			},
			"properties":{
				"date":"2020-01-26",
				"country":"中国",
				"province":"辽宁省",
				"city":"沈阳市",
				"confirmed":6,
				"suspected":0,
				"cured":0,
				"dead":0
			}
		},
		{
			"type":"Feature",
			"geometry":{
				"type":"Point",
				"coordinates":[121.610054,38.912525]
			},
			"properties":{
				"date":"2020-01-26",
				"country":"中国",
				"province":"辽宁省",
				"city":"大连市",
				"confirmed":4,
				"suspected":0,
				"cured":0,
				"dead":0
			}
		},
		{
			"type":"Feature",
			"geometry":{
				"type":"Point",
				"coordinates":[123.68017,41.484867]
			},
			"properties":{
				"date":"2020-01-26",
				"country":"中国",
				"province":"辽宁省",
				"city":"本溪市",
				"confirmed":2,
				"suspected":0,
				"cured":0,
				"dead":0
			}
		},
		{
			"type":"Feature",
			"geometry":{
				"type":"Point",
				"coordinates":[124.34923,39.998955]
			},
			"properties":{
				"date":"2020-01-26",
				"country":"中国",
				"province":"辽宁省",
				"city":"丹东市",
				"confirmed":1,
				"suspected":0,
				"cured":0,
				"dead":0
			}
		},
		{
			"type":"Feature",
			"geometry":{
				"type":"Point",
				"coordinates":[122.22983,40.665833]
			},
			"properties":{
				"date":"2020-01-26",
				"country":"中国",
				"province":"辽宁省",
				"city":"营口市",
				"confirmed":1,
				"suspected":0,
				"cured":0,
				"dead":0
			}
		},
		{
			"type":"Feature",
			"geometry":{
				"type":"Point",
				"coordinates":[122.065506,41.117805]
			},
			"properties":{
				"date":"2020-01-26",
				"country":"中国",
				"province":"辽宁省",
				"city":"盘锦市",
				"confirmed":2,
				"suspected":0,
				"cured":0,
				"dead":0
			}
		},
		{
			"type":"Feature",
			"geometry":{
				"type":"Point",
				"coordinates":[123.719986,42.22137]
			},
			"properties":{
				"date":"2020-01-26",
				"country":"中国",
				"province":"辽宁省",
				"city":"铁岭市",
				"confirmed":2,
				"suspected":0,
				"cured":0,
				"dead":0
			}
		},
		{
			"type":"Feature",
			"geometry":{
				"type":"Point",
				"coordinates":[120.44532,41.571514]
			},
			"properties":{
				"date":"2020-01-26",
				"country":"中国",
				"province":"辽宁省",
				"city":"朝阳市",
				"confirmed":2,
				"suspected":0,
				"cured":0,
				"dead":0
			}
		},
		{
			"type":"Feature",
			"geometry":{
				"type":"Point",
				"coordinates":[120.831825,40.709553]
			},
			"properties":{
				"date":"2020-01-26",
				"country":"中国",
				"province":"辽宁省",
				"city":"葫芦岛市",
				"confirmed":2,
				"suspected":0,
				"cured":0,
				"dead":0
			}
		},
		{
			"type":"Feature",
			"geometry":{
				"type":"Point",
				"coordinates":[125.31749,43.813747]
			},
			"properties":{
				"date":"2020-01-26",
				"country":"中国",
				"province":"吉林省",
				"city":"长春市",
				"confirmed":1,
				"suspected":0,
				"cured":0,
				"dead":0
			}
		},
		{
			"type":"Feature",
			"geometry":{
				"type":"Point",
				"coordinates":[126.54331,43.835644]
			},
			"properties":{
				"date":"2020-01-26",
				"country":"中国",
				"province":"吉林省",
				"city":"吉林市",
				"confirmed":2,
				"suspected":0,
				"cured":0,
				"dead":0
			}
		},
		{
			"type":"Feature",
			"geometry":{
				"type":"Point",
				"coordinates":[124.343796,43.163425]
			},
			"properties":{
				"date":"2020-01-26",
				"country":"中国",
				"province":"吉林省",
				"city":"四平市",
				"confirmed":1,
				"suspected":0,
				"cured":0,
				"dead":0
			}
		},
		{
			"type":"Feature",
			"geometry":{
				"type":"Point",
				"coordinates":[124.81871,45.13933]
			},
			"properties":{
				"date":"2020-01-26",
				"country":"中国",
				"province":"吉林省",
				"city":"松原市",
				"confirmed":2,
				"suspected":0,
				"cured":0,
				"dead":0
			}
		},
		{
			"type":"Feature",
			"geometry":{
				"type":"Point",
				"coordinates":[126.52896,45.801216]
			},
			"properties":{
				"date":"2020-01-26",
				"country":"中国",
				"province":"黑龙江省",
				"city":"哈尔滨市",
				"confirmed":8,
				"suspected":0,
				"cured":0,
				"dead":0
			}
		},
		{
			"type":"Feature",
			"geometry":{
				"type":"Point",
				"coordinates":[123.91145,47.35216]
			},
			"properties":{
				"date":"2020-01-26",
				"country":"中国",
				"province":"黑龙江省",
				"city":"齐齐哈尔市",
				"confirmed":1,
				"suspected":0,
				"cured":0,
				"dead":0
			}
		},
		{
			"type":"Feature",
			"geometry":{
				"type":"Point",
				"coordinates":[131.1509,46.644573]
			},
			"properties":{
				"date":"2020-01-26",
				"country":"中国",
				"province":"黑龙江省",
				"city":"双鸭山市",
				"confirmed":1,
				"suspected":0,
				"cured":0,
				"dead":0
			}
		},
		{
			"type":"Feature",
			"geometry":{
				"type":"Point",
				"coordinates":[125.09495,46.585896]
			},
			"properties":{
				"date":"2020-01-26",
				"country":"中国",
				"province":"黑龙江省",
				"city":"大庆市",
				"confirmed":5,
				"suspected":0,
				"cured":0,
				"dead":0
			}
		},
		{
			"type":"Feature",
			"geometry":{
				"type":"Point",
				"coordinates":[130.3132,46.797073]
			},
			"properties":{
				"date":"2020-01-26",
				"country":"中国",
				"province":"黑龙江省",
				"city":"佳木斯市",
				"confirmed":1,
				"suspected":0,
				"cured":0,
				"dead":0
			}
		},
		{
			"type":"Feature",
			"geometry":{
				"type":"Point",
				"coordinates":[130.99728,45.768166]
			},
			"properties":{
				"date":"2020-01-26",
				"country":"中国",
				"province":"黑龙江省",
				"city":"七台河市",
				"confirmed":1,
				"suspected":0,
				"cured":0,
				"dead":0
			}
		},
		{
			"type":"Feature",
			"geometry":{
				"type":"Point",
				"coordinates":[129.62592,44.548332]
			},
			"properties":{
				"date":"2020-01-26",
				"country":"中国",
				"province":"黑龙江省",
				"city":"牡丹江市",
				"confirmed":1,
				"suspected":0,
				"cured":0,
				"dead":0
			}
		},
		{
			"type":"Feature",
			"geometry":{
				"type":"Point",
				"coordinates":[126.96268,46.651794]
			},
			"properties":{
				"date":"2020-01-26",
				"country":"中国",
				"province":"黑龙江省",
				"city":"绥化市",
				"confirmed":3,
				"suspected":0,
				"cured":0,
				"dead":1
			}
		},
		{
			"type":"Feature",
			"geometry":{
				"type":"Point",
				"coordinates":[121.480515,31.233475]
			},
			"properties":{
				"date":"2020-01-26",
				"country":"中国",
				"province":"上海市",
				"city":"黄浦区",
				"confirmed":1,
				"suspected":0,
				"cured":0,
				"dead":0
			}
		},
		{
			"type":"Feature",
			"geometry":{
				"type":"Point",
				"coordinates":[121.43238,31.190083]
			},
			"properties":{
				"date":"2020-01-26",
				"country":"中国",
				"province":"上海市",
				"city":"徐汇区",
				"confirmed":3,
				"suspected":0,
				"cured":0,
				"dead":0
			}
		},
		{
			"type":"Feature",
			"geometry":{
				"type":"Point",
				"coordinates":[121.419365,31.22245]
			},
			"properties":{
				"date":"2020-01-26",
				"country":"中国",
				"province":"上海市",
				"city":"长宁区",
				"confirmed":5,
				"suspected":0,
				"cured":0,
				"dead":0
			}
		},
		{
			"type":"Feature",
			"geometry":{
				"type":"Point",
				"coordinates":[121.442406,31.22938]
			},
			"properties":{
				"date":"2020-01-26",
				"country":"中国",
				"province":"上海市",
				"city":"静安区",
				"confirmed":5,
				"suspected":0,
				"cured":0,
				"dead":0
			}
		},
		{
			"type":"Feature",
			"geometry":{
				"type":"Point",
				"coordinates":[121.50059,31.266117]
			},
			"properties":{
				"date":"2020-01-26",
				"country":"中国",
				"province":"上海市",
				"city":"虹口区",
				"confirmed":2,
				"suspected":0,
				"cured":0,
				"dead":0
			}
		},
		{
			"type":"Feature",
			"geometry":{
				"type":"Point",
				"coordinates":[121.37737,31.115103]
			},
			"properties":{
				"date":"2020-01-26",
				"country":"中国",
				"province":"上海市",
				"city":"闵行区",
				"confirmed":2,
				"suspected":0,
				"cured":0,
				"dead":0
			}
		},
		{
			"type":"Feature",
			"geometry":{
				"type":"Point",
				"coordinates":[121.48552,31.406525]
			},
			"properties":{
				"date":"2020-01-26",
				"country":"中国",
				"province":"上海市",
				"city":"宝山区",
				"confirmed":1,
				"suspected":0,
				"cured":0,
				"dead":0
			}
		},
		{
			"type":"Feature",
			"geometry":{
				"type":"Point",
				"coordinates":[121.26155,31.376461]
			},
			"properties":{
				"date":"2020-01-26",
				"country":"中国",
				"province":"上海市",
				"city":"嘉定区",
				"confirmed":1,
				"suspected":0,
				"cured":0,
				"dead":0
			}
		},
		{
			"type":"Feature",
			"geometry":{
				"type":"Point",
				"coordinates":[121.53972,31.223246]
			},
			"properties":{
				"date":"2020-01-26",
				"country":"中国",
				"province":"上海市",
				"city":"浦东新区",
				"confirmed":7,
				"suspected":0,
				"cured":0,
				"dead":0
			}
		},
		{
			"type":"Feature",
			"geometry":{
				"type":"Point",
				"coordinates":[121.1194,31.151594]
			},
			"properties":{
				"date":"2020-01-26",
				"country":"中国",
				"province":"上海市",
				"city":"青浦区",
				"confirmed":1,
				"suspected":0,
				"cured":0,
				"dead":0
			}
		},
		{
			"type":"Feature",
			"geometry":{
				"type":"Point",
				"coordinates":[121.469505,30.919916]
			},
			"properties":{
				"date":"2020-01-26",
				"country":"中国",
				"province":"上海市",
				"city":"奉贤区",
				"confirmed":1,
				"suspected":0,
				"cured":0,
				"dead":0
			}
		},
		{
			"type":"Feature",
			"geometry":{
				"type":"Point",
				"coordinates":[118.79082,32.060375]
			},
			"properties":{
				"date":"2020-01-26",
				"country":"中国",
				"province":"江苏省",
				"city":"南京市",
				"confirmed":7,
				"suspected":0,
				"cured":0,
				"dead":0
			}
		},
		{
			"type":"Feature",
			"geometry":{
				"type":"Point",
				"coordinates":[120.30739,31.494987]
			},
			"properties":{
				"date":"2020-01-26",
				"country":"中国",
				"province":"江苏省",
				"city":"无锡市",
				"confirmed":4,
				"suspected":0,
				"cured":0,
				"dead":0
			}
		},
		{
			"type":"Feature",
			"geometry":{
				"type":"Point",
				"coordinates":[117.278244,34.20819]
			},
			"properties":{
				"date":"2020-01-26",
				"country":"中国",
				"province":"江苏省",
				"city":"徐州市",
				"confirmed":3,
				"suspected":0,
				"cured":0,
				"dead":0
			}
		},
		{
			"type":"Feature",
			"geometry":{
				"type":"Point",
				"coordinates":[119.970245,31.811737]
			},
			"properties":{
				"date":"2020-01-26",
				"country":"中国",
				"province":"江苏省",
				"city":"常州市",
				"confirmed":6,
				"suspected":0,
				"cured":0,
				"dead":0
			}
		},
		{
			"type":"Feature",
			"geometry":{
				"type":"Point",
				"coordinates":[120.581825,31.299486]
			},
			"properties":{
				"date":"2020-01-26",
				"country":"中国",
				"province":"江苏省",
				"city":"苏州市",
				"confirmed":8,
				"suspected":0,
				"cured":1,
				"dead":0
			}
		},
		{
			"type":"Feature",
			"geometry":{
				"type":"Point",
				"coordinates":[120.890785,31.98307]
			},
			"properties":{
				"date":"2020-01-26",
				"country":"中国",
				"province":"江苏省",
				"city":"南通市",
				"confirmed":4,
				"suspected":0,
				"cured":0,
				"dead":0
			}
		},
		{
			"type":"Feature",
			"geometry":{
				"type":"Point",
				"coordinates":[119.21647,34.597633]
			},
			"properties":{
				"date":"2020-01-26",
				"country":"中国",
				"province":"江苏省",
				"city":"连云港市",
				"confirmed":3,
				"suspected":0,
				"cured":0,
				"dead":0
			}
		},
		{
			"type":"Feature",
			"geometry":{
				"type":"Point",
				"coordinates":[119.009544,33.611595]
			},
			"properties":{
				"date":"2020-01-26",
				"country":"中国",
				"province":"江苏省",
				"city":"淮安市",
				"confirmed":2,
				"suspected":0,
				"cured":0,
				"dead":0
			}
		},
		{
			"type":"Feature",
			"geometry":{
				"type":"Point",
				"coordinates":[120.15605,33.350735]
			},
			"properties":{
				"date":"2020-01-26",
				"country":"中国",
				"province":"江苏省",
				"city":"盐城市",
				"confirmed":1,
				"suspected":0,
				"cured":0,
				"dead":0
			}
		},
		{
			"type":"Feature",
			"geometry":{
				"type":"Point",
				"coordinates":[119.40752,32.39628]
			},
			"properties":{
				"date":"2020-01-26",
				"country":"中国",
				"province":"江苏省",
				"city":"扬州市",
				"confirmed":4,
				"suspected":0,
				"cured":0,
				"dead":0
			}
		},
		{
			"type":"Feature",
			"geometry":{
				"type":"Point",
				"coordinates":[119.41856,32.190475]
			},
			"properties":{
				"date":"2020-01-26",
				"country":"中国",
				"province":"江苏省",
				"city":"镇江市",
				"confirmed":2,
				"suspected":0,
				"cured":0,
				"dead":0
			}
		},
		{
			"type":"Feature",
			"geometry":{
				"type":"Point",
				"coordinates":[119.91827,32.457123]
			},
			"properties":{
				"date":"2020-01-26",
				"country":"中国",
				"province":"江苏省",
				"city":"泰州市",
				"confirmed":2,
				"suspected":0,
				"cured":0,
				"dead":0
			}
		},
		{
			"type":"Feature",
			"geometry":{
				"type":"Point",
				"coordinates":[118.26949,33.96335]
			},
			"properties":{
				"date":"2020-01-26",
				"country":"中国",
				"province":"江苏省",
				"city":"宿迁市",
				"confirmed":1,
				"suspected":0,
				"cured":0,
				"dead":0
			}
		},
		{
			"type":"Feature",
			"geometry":{
				"type":"Point",
				"coordinates":[120.20446,30.249525]
			},
			"properties":{
				"date":"2020-01-26",
				"country":"中国",
				"province":"浙江省",
				"city":"杭州市",
				"confirmed":27,
				"suspected":0,
				"cured":0,
				"dead":0
			}
		},
		{
			"type":"Feature",
			"geometry":{
				"type":"Point",
				"coordinates":[121.617905,29.863022]
			},
			"properties":{
				"date":"2020-01-26",
				"country":"中国",
				"province":"浙江省",
				"city":"宁波市",
				"confirmed":13,
				"suspected":0,
				"cured":0,
				"dead":0
			}
		},
		{
			"type":"Feature",
			"geometry":{
				"type":"Point",
				"coordinates":[120.69594,27.998182]
			},
			"properties":{
				"date":"2020-01-26",
				"country":"中国",
				"province":"浙江省",
				"city":"温州市",
				"confirmed":32,
				"suspected":0,
				"cured":1,
				"dead":0
			}
		},
		{
			"type":"Feature",
			"geometry":{
				"type":"Point",
				"coordinates":[120.75268,30.747402]
			},
			"properties":{
				"date":"2020-01-26",
				"country":"中国",
				"province":"浙江省",
				"city":"嘉兴市",
				"confirmed":8,
				"suspected":0,
				"cured":0,
				"dead":0
			}
		},
		{
			"type":"Feature",
			"geometry":{
				"type":"Point",
				"coordinates":[120.08313,30.895044]
			},
			"properties":{
				"date":"2020-01-26",
				"country":"中国",
				"province":"浙江省",
				"city":"湖州市",
				"confirmed":3,
				"suspected":0,
				"cured":0,
				"dead":0
			}
		},
		{
			"type":"Feature",
			"geometry":{
				"type":"Point",
				"coordinates":[120.57492,30.032835]
			},
			"properties":{
				"date":"2020-01-26",
				"country":"中国",
				"province":"浙江省",
				"city":"绍兴市",
				"confirmed":6,
				"suspected":0,
				"cured":0,
				"dead":0
			}
		},
		{
			"type":"Feature",
			"geometry":{
				"type":"Point",
				"coordinates":[119.642296,29.081278]
			},
			"properties":{
				"date":"2020-01-26",
				"country":"中国",
				"province":"浙江省",
				"city":"金华市",
				"confirmed":5,
				"suspected":0,
				"cured":0,
				"dead":0
			}
		},
		{
			"type":"Feature",
			"geometry":{
				"type":"Point",
				"coordinates":[118.85521,28.972986]
			},
			"properties":{
				"date":"2020-01-26",
				"country":"中国",
				"province":"浙江省",
				"city":"衢州市",
				"confirmed":5,
				"suspected":0,
				"cured":0,
				"dead":0
			}
		},
		{
			"type":"Feature",
			"geometry":{
				"type":"Point",
				"coordinates":[122.20284,29.987602]
			},
			"properties":{
				"date":"2020-01-26",
				"country":"中国",
				"province":"浙江省",
				"city":"舟山市",
				"confirmed":4,
				"suspected":0,
				"cured":0,
				"dead":0
			}
		},
		{
			"type":"Feature",
			"geometry":{
				"type":"Point",
				"coordinates":[121.41657,28.658953]
			},
			"properties":{
				"date":"2020-01-26",
				"country":"中国",
				"province":"浙江省",
				"city":"台州市",
				"confirmed":22,
				"suspected":0,
				"cured":0,
				"dead":0
			}
		},
		{
			"type":"Feature",
			"geometry":{
				"type":"Point",
				"coordinates":[119.918594,28.470907]
			},
			"properties":{
				"date":"2020-01-26",
				"country":"中国",
				"province":"浙江省",
				"city":"丽水市",
				"confirmed":3,
				"suspected":0,
				"cured":0,
				"dead":0
			}
		},
		{
			"type":"Feature",
			"geometry":{
				"type":"Point",
				"coordinates":[117.22152,31.8223]
			},
			"properties":{
				"date":"2020-01-26",
				"country":"中国",
				"province":"安徽省",
				"city":"合肥市",
				"confirmed":13,
				"suspected":0,
				"cured":0,
				"dead":0
			}
		},
		{
			"type":"Feature",
			"geometry":{
				"type":"Point",
				"coordinates":[118.42762,31.354053]
			},
			"properties":{
				"date":"2020-01-26",
				"country":"中国",
				"province":"安徽省",
				"city":"芜湖市",
				"confirmed":6,
				"suspected":0,
				"cured":0,
				"dead":0
			}
		},
		{
			"type":"Feature",
			"geometry":{
				"type":"Point",
				"coordinates":[117.383156,32.917206]
			},
			"properties":{
				"date":"2020-01-26",
				"country":"中国",
				"province":"安徽省",
				"city":"蚌埠市",
				"confirmed":3,
				"suspected":0,
				"cured":0,
				"dead":0
			}
		},
		{
			"type":"Feature",
			"geometry":{
				"type":"Point",
				"coordinates":[116.994576,32.62755]
			},
			"properties":{
				"date":"2020-01-26",
				"country":"中国",
				"province":"安徽省",
				"city":"淮南市",
				"confirmed":2,
				"suspected":0,
				"cured":0,
				"dead":0
			}
		},
		{
			"type":"Feature",
			"geometry":{
				"type":"Point",
				"coordinates":[118.50182,31.672592]
			},
			"properties":{
				"date":"2020-01-26",
				"country":"中国",
				"province":"安徽省",
				"city":"马鞍山市",
				"confirmed":7,
				"suspected":0,
				"cured":0,
				"dead":0
			}
		},
		{
			"type":"Feature",
			"geometry":{
				"type":"Point",
				"coordinates":[116.7926,33.95723]
			},
			"properties":{
				"date":"2020-01-26",
				"country":"中国",
				"province":"安徽省",
				"city":"淮北市",
				"confirmed":1,
				"suspected":0,
				"cured":0,
				"dead":0
			}
		},
		{
			"type":"Feature",
			"geometry":{
				"type":"Point",
				"coordinates":[117.80666,30.947495]
			},
			"properties":{
				"date":"2020-01-26",
				"country":"中国",
				"province":"安徽省",
				"city":"铜陵市",
				"confirmed":3,
				"suspected":0,
				"cured":0,
				"dead":0
			}
		},
		{
			"type":"Feature",
			"geometry":{
				"type":"Point",
				"coordinates":[117.05156,30.5276]
			},
			"properties":{
				"date":"2020-01-26",
				"country":"中国",
				"province":"安徽省",
				"city":"安庆市",
				"confirmed":8,
				"suspected":0,
				"cured":0,
				"dead":0
			}
		},
		{
			"type":"Feature",
			"geometry":{
				"type":"Point",
				"coordinates":[118.33379,29.718096]
			},
			"properties":{
				"date":"2020-01-26",
				"country":"中国",
				"province":"安徽省",
				"city":"黄山市",
				"confirmed":1,
				"suspected":0,
				"cured":0,
				"dead":0
			}
		},
		{
			"type":"Feature",
			"geometry":{
				"type":"Point",
				"coordinates":[118.327576,32.256973]
			},
			"properties":{
				"date":"2020-01-26",
				"country":"中国",
				"province":"安徽省",
				"city":"滁州市",
				"confirmed":2,
				"suspected":0,
				"cured":0,
				"dead":0
			}
		},
		{
			"type":"Feature",
			"geometry":{
				"type":"Point",
				"coordinates":[115.80863,32.891796]
			},
			"properties":{
				"date":"2020-01-26",
				"country":"中国",
				"province":"安徽省",
				"city":"阜阳市",
				"confirmed":10,
				"suspected":0,
				"cured":0,
				"dead":0
			}
		},
		{
			"type":"Feature",
			"geometry":{
				"type":"Point",
				"coordinates":[116.95862,33.647766]
			},
			"properties":{
				"date":"2020-01-26",
				"country":"中国",
				"province":"安徽省",
				"city":"宿州市",
				"confirmed":3,
				"suspected":0,
				"cured":0,
				"dead":0
			}
		},
		{
			"type":"Feature",
			"geometry":{
				"type":"Point",
				"coordinates":[116.514915,31.737165]
			},
			"properties":{
				"date":"2020-01-26",
				"country":"中国",
				"province":"安徽省",
				"city":"六安市",
				"confirmed":3,
				"suspected":0,
				"cured":0,
				"dead":0
			}
		},
		{
			"type":"Feature",
			"geometry":{
				"type":"Point",
				"coordinates":[115.77246,33.845943]
			},
			"properties":{
				"date":"2020-01-26",
				"country":"中国",
				"province":"安徽省",
				"city":"亳州市",
				"confirmed":6,
				"suspected":0,
				"cured":0,
				"dead":0
			}
		},
		{
			"type":"Feature",
			"geometry":{
				"type":"Point",
				"coordinates":[117.486534,30.666962]
			},
			"properties":{
				"date":"2020-01-26",
				"country":"中国",
				"province":"安徽省",
				"city":"池州市",
				"confirmed":1,
				"suspected":0,
				"cured":0,
				"dead":0
			}
		},
		{
			"type":"Feature",
			"geometry":{
				"type":"Point",
				"coordinates":[118.753876,30.94302]
			},
			"properties":{
				"date":"2020-01-26",
				"country":"中国",
				"province":"安徽省",
				"city":"宣城市",
				"confirmed":1,
				"suspected":0,
				"cured":0,
				"dead":0
			}
		},
		{
			"type":"Feature",
			"geometry":{
				"type":"Point",
				"coordinates":[119.2922,26.077301]
			},
			"properties":{
				"date":"2020-01-26",
				"country":"中国",
				"province":"福建省",
				"city":"福州市",
				"confirmed":13,
				"suspected":19,
				"cured":0,
				"dead":0
			}
		},
		{
			"type":"Feature",
			"geometry":{
				"type":"Point",
				"coordinates":[118.08502,24.481747]
			},
			"properties":{
				"date":"2020-01-26",
				"country":"中国",
				"province":"福建省",
				"city":"厦门市",
				"confirmed":4,
				"suspected":3,
				"cured":0,
				"dead":0
			}
		},
		{
			"type":"Feature",
			"geometry":{
				"type":"Point",
				"coordinates":[119.003265,25.45668]
			},
			"properties":{
				"date":"2020-01-26",
				"country":"中国",
				"province":"福建省",
				"city":"莆田市",
				"confirmed":1,
				"suspected":8,
				"cured":0,
				"dead":0
			}
		},
		{
			"type":"Feature",
			"geometry":{
				"type":"Point",
				"coordinates":[117.6341,26.267324]
			},
			"properties":{
				"date":"2020-01-26",
				"country":"中国",
				"province":"福建省",
				"city":"三明市",
				"confirmed":4,
				"suspected":3,
				"cured":0,
				"dead":0
			}
		},
		{
			"type":"Feature",
			"geometry":{
				"type":"Point",
				"coordinates":[118.671455,24.876509]
			},
			"properties":{
				"date":"2020-01-26",
				"country":"中国",
				"province":"福建省",
				"city":"泉州市",
				"confirmed":5,
				"suspected":3,
				"cured":0,
				"dead":0
			}
		},
		{
			"type":"Feature",
			"geometry":{
				"type":"Point",
				"coordinates":[117.64221,24.51618]
			},
			"properties":{
				"date":"2020-01-26",
				"country":"中国",
				"province":"福建省",
				"city":"漳州市",
				"confirmed":4,
				"suspected":0,
				"cured":0,
				"dead":0
			}
		},
		{
			"type":"Feature",
			"geometry":{
				"type":"Point",
				"coordinates":[118.17291,26.644926]
			},
			"properties":{
				"date":"2020-01-26",
				"country":"中国",
				"province":"福建省",
				"city":"南平市",
				"confirmed":1,
				"suspected":1,
				"cured":0,
				"dead":0
			}
		},
		{
			"type":"Feature",
			"geometry":{
				"type":"Point",
				"coordinates":[117.01212,25.077759]
			},
			"properties":{
				"date":"2020-01-26",
				"country":"中国",
				"province":"福建省",
				"city":"龙岩市",
				"confirmed":0,
				"suspected":2,
				"cured":0,
				"dead":0
			}
		},
		{
			"type":"Feature",
			"geometry":{
				"type":"Point",
				"coordinates":[119.54342,26.669697]
			},
			"properties":{
				"date":"2020-01-26",
				"country":"中国",
				"province":"福建省",
				"city":"宁德市",
				"confirmed":3,
				"suspected":0,
				"cured":0,
				"dead":0
			}
		},
		{
			"type":"Feature",
			"geometry":{
				"type":"Point",
				"coordinates":[115.853096,28.68713]
			},
			"properties":{
				"date":"2020-01-26",
				"country":"中国",
				"province":"江西省",
				"city":"南昌市",
				"confirmed":8,
				"suspected":0,
				"cured":0,
				"dead":0
			}
		},
		{
			"type":"Feature",
			"geometry":{
				"type":"Point",
				"coordinates":[117.17268,29.271242]
			},
			"properties":{
				"date":"2020-01-26",
				"country":"中国",
				"province":"江西省",
				"city":"景德镇市",
				"confirmed":2,
				"suspected":0,
				"cured":0,
				"dead":0
			}
		},
		{
			"type":"Feature",
			"geometry":{
				"type":"Point",
				"coordinates":[113.8497,27.625711]
			},
			"properties":{
				"date":"2020-01-26",
				"country":"中国",
				"province":"江西省",
				"city":"萍乡市",
				"confirmed":2,
				"suspected":0,
				"cured":0,
				"dead":0
			}
		},
		{
			"type":"Feature",
			"geometry":{
				"type":"Point",
				"coordinates":[115.99591,29.70804]
			},
			"properties":{
				"date":"2020-01-26",
				"country":"中国",
				"province":"江西省",
				"city":"九江市",
				"confirmed":4,
				"suspected":0,
				"cured":0,
				"dead":0
			}
		},
		{
			"type":"Feature",
			"geometry":{
				"type":"Point",
				"coordinates":[114.912155,27.821257]
			},
			"properties":{
				"date":"2020-01-26",
				"country":"中国",
				"province":"江西省",
				"city":"新余市",
				"confirmed":3,
				"suspected":0,
				"cured":0,
				"dead":0
			}
		},
		{
			"type":"Feature",
			"geometry":{
				"type":"Point",
				"coordinates":[114.929276,25.832281]
			},
			"properties":{
				"date":"2020-01-26",
				"country":"中国",
				"province":"江西省",
				"city":"赣州市",
				"confirmed":7,
				"suspected":0,
				"cured":0,
				"dead":0
			}
		},
		{
			"type":"Feature",
			"geometry":{
				"type":"Point",
				"coordinates":[114.98901,27.11715]
			},
			"properties":{
				"date":"2020-01-26",
				"country":"中国",
				"province":"江西省",
				"city":"吉安市",
				"confirmed":3,
				"suspected":0,
				"cured":0,
				"dead":0
			}
		},
		{
			"type":"Feature",
			"geometry":{
				"type":"Point",
				"coordinates":[114.4117,27.818302]
			},
			"properties":{
				"date":"2020-01-26",
				"country":"中国",
				"province":"江西省",
				"city":"宜春市",
				"confirmed":6,
				"suspected":0,
				"cured":0,
				"dead":0
			}
		},
		{
			"type":"Feature",
			"geometry":{
				"type":"Point",
				"coordinates":[116.353,27.952234]
			},
			"properties":{
				"date":"2020-01-26",
				"country":"中国",
				"province":"江西省",
				"city":"抚州市",
				"confirmed":7,
				"suspected":0,
				"cured":0,
				"dead":0
			}
		},
		{
			"type":"Feature",
			"geometry":{
				"type":"Point",
				"coordinates":[117.93802,28.457808]
			},
			"properties":{
				"date":"2020-01-26",
				"country":"中国",
				"province":"江西省",
				"city":"上饶市",
				"confirmed":6,
				"suspected":0,
				"cured":0,
				"dead":0
			}
		},
		{
			"type":"Feature",
			"geometry":{
				"type":"Point",
				"coordinates":[117.11388,36.649773]
			},
			"properties":{
				"date":"2020-01-26",
				"country":"中国",
				"province":"山东省",
				"city":"济南市",
				"confirmed":7,
				"suspected":0,
				"cured":0,
				"dead":0
			}
		},
		{
			"type":"Feature",
			"geometry":{
				"type":"Point",
				"coordinates":[120.37787,36.065823]
			},
			"properties":{
				"date":"2020-01-26",
				"country":"中国",
				"province":"山东省",
				"city":"青岛市",
				"confirmed":10,
				"suspected":17,
				"cured":0,
				"dead":0
			}
		},
		{
			"type":"Feature",
			"geometry":{
				"type":"Point",
				"coordinates":[118.04892,36.812477]
			},
			"properties":{
				"date":"2020-01-26",
				"country":"中国",
				"province":"山东省",
				"city":"淄博市",
				"confirmed":2,
				"suspected":0,
				"cured":0,
				"dead":0
			}
		},
		{
			"type":"Feature",
			"geometry":{
				"type":"Point",
				"coordinates":[117.31809,34.810894]
			},
			"properties":{
				"date":"2020-01-26",
				"country":"中国",
				"province":"山东省",
				"city":"枣庄市",
				"confirmed":0,
				"suspected":2,
				"cured":0,
				"dead":0
			}
		},
		{
			"type":"Feature",
			"geometry":{
				"type":"Point",
				"coordinates":[121.442795,37.46273]
			},
			"properties":{
				"date":"2020-01-26",
				"country":"中国",
				"province":"山东省",
				"city":"烟台市",
				"confirmed":4,
				"suspected":0,
				"cured":0,
				"dead":0
			}
		},
		{
			"type":"Feature",
			"geometry":{
				"type":"Point",
				"coordinates":[119.15612,36.705856]
			},
			"properties":{
				"date":"2020-01-26",
				"country":"中国",
				"province":"山东省",
				"city":"潍坊市",
				"confirmed":3,
				"suspected":0,
				"cured":0,
				"dead":0
			}
		},
		{
			"type":"Feature",
			"geometry":{
				"type":"Point",
				"coordinates":[116.58171,35.414948]
			},
			"properties":{
				"date":"2020-01-26",
				"country":"中国",
				"province":"山东省",
				"city":"济宁市",
				"confirmed":5,
				"suspected":0,
				"cured":0,
				"dead":0
			}
		},
		{
			"type":"Feature",
			"geometry":{
				"type":"Point",
				"coordinates":[117.08193,36.19965]
			},
			"properties":{
				"date":"2020-01-26",
				"country":"中国",
				"province":"山东省",
				"city":"泰安市",
				"confirmed":0,
				"suspected":1,
				"cured":0,
				"dead":0
			}
		},
		{
			"type":"Feature",
			"geometry":{
				"type":"Point",
				"coordinates":[122.115944,37.509567]
			},
			"properties":{
				"date":"2020-01-26",
				"country":"中国",
				"province":"山东省",
				"city":"威海市",
				"confirmed":7,
				"suspected":5,
				"cured":0,
				"dead":0
			}
		},
		{
			"type":"Feature",
			"geometry":{
				"type":"Point",
				"coordinates":[119.52157,35.416786]
			},
			"properties":{
				"date":"2020-01-26",
				"country":"中国",
				"province":"山东省",
				"city":"日照市",
				"confirmed":5,
				"suspected":0,
				"cured":0,
				"dead":0
			}
		},
		{
			"type":"Feature",
			"geometry":{
				"type":"Point",
				"coordinates":[118.35124,35.10519]
			},
			"properties":{
				"date":"2020-01-26",
				"country":"中国",
				"province":"山东省",
				"city":"临沂市",
				"confirmed":7,
				"suspected":0,
				"cured":0,
				"dead":0
			}
		},
		{
			"type":"Feature",
			"geometry":{
				"type":"Point",
				"coordinates":[116.353096,37.43463]
			},
			"properties":{
				"date":"2020-01-26",
				"country":"中国",
				"province":"山东省",
				"city":"德州市",
				"confirmed":6,
				"suspected":2,
				"cured":0,
				"dead":0
			}
		},
		{
			"type":"Feature",
			"geometry":{
				"type":"Point",
				"coordinates":[115.979324,36.457012]
			},
			"properties":{
				"date":"2020-01-26",
				"country":"中国",
				"province":"山东省",
				"city":"聊城市",
				"confirmed":1,
				"suspected":1,
				"cured":0,
				"dead":0
			}
		},
		{
			"type":"Feature",
			"geometry":{
				"type":"Point",
				"coordinates":[117.965096,37.38125]
			},
			"properties":{
				"date":"2020-01-26",
				"country":"中国",
				"province":"山东省",
				"city":"滨州市",
				"confirmed":3,
				"suspected":1,
				"cured":0,
				"dead":0
			}
		},
		{
			"type":"Feature",
			"geometry":{
				"type":"Point",
				"coordinates":[115.47515,35.233997]
			},
			"properties":{
				"date":"2020-01-26",
				"country":"中国",
				"province":"山东省",
				"city":"菏泽市",
				"confirmed":3,
				"suspected":4,
				"cured":0,
				"dead":0
			}
		},
		{
			"type":"Feature",
			"geometry":{
				"type":"Point",
				"coordinates":[113.61895,34.748383]
			},
			"properties":{
				"date":"2020-01-26",
				"country":"中国",
				"province":"河南省",
				"city":"郑州市",
				"confirmed":29,
				"suspected":0,
				"cured":0,
				"dead":0
			}
		},
		{
			"type":"Feature",
			"geometry":{
				"type":"Point",
				"coordinates":[114.302155,34.79809]
			},
			"properties":{
				"date":"2020-01-26",
				"country":"中国",
				"province":"河南省",
				"city":"开封市",
				"confirmed":1,
				"suspected":0,
				"cured":0,
				"dead":0
			}
		},
		{
			"type":"Feature",
			"geometry":{
				"type":"Point",
				"coordinates":[112.44675,34.619022]
			},
			"properties":{
				"date":"2020-01-26",
				"country":"中国",
				"province":"河南省",
				"city":"洛阳市",
				"confirmed":2,
				"suspected":0,
				"cured":0,
				"dead":0
			}
		},
		{
			"type":"Feature",
			"geometry":{
				"type":"Point",
				"coordinates":[113.18673,33.767536]
			},
			"properties":{
				"date":"2020-01-26",
				"country":"中国",
				"province":"河南省",
				"city":"平顶山市",
				"confirmed":5,
				"suspected":0,
				"cured":0,
				"dead":0
			}
		},
		{
			"type":"Feature",
			"geometry":{
				"type":"Point",
				"coordinates":[114.38691,36.099827]
			},
			"properties":{
				"date":"2020-01-26",
				"country":"中国",
				"province":"河南省",
				"city":"安阳市",
				"confirmed":7,
				"suspected":0,
				"cured":0,
				"dead":0
			}
		},
		{
			"type":"Feature",
			"geometry":{
				"type":"Point",
				"coordinates":[114.29107,35.74677]
			},
			"properties":{
				"date":"2020-01-26",
				"country":"中国",
				"province":"河南省",
				"city":"鹤壁市",
				"confirmed":2,
				"suspected":0,
				"cured":0,
				"dead":0
			}
		},
		{
			"type":"Feature",
			"geometry":{
				"type":"Point",
				"coordinates":[113.9211,35.304485]
			},
			"properties":{
				"date":"2020-01-26",
				"country":"中国",
				"province":"河南省",
				"city":"新乡市",
				"confirmed":4,
				"suspected":0,
				"cured":0,
				"dead":0
			}
		},
		{
			"type":"Feature",
			"geometry":{
				"type":"Point",
				"coordinates":[113.84613,34.036957]
			},
			"properties":{
				"date":"2020-01-26",
				"country":"中国",
				"province":"河南省",
				"city":"许昌市",
				"confirmed":1,
				"suspected":0,
				"cured":0,
				"dead":0
			}
		},
		{
			"type":"Feature",
			"geometry":{
				"type":"Point",
				"coordinates":[114.01107,33.582985]
			},
			"properties":{
				"date":"2020-01-26",
				"country":"中国",
				"province":"河南省",
				"city":"漯河市",
				"confirmed":6,
				"suspected":0,
				"cured":0,
				"dead":0
			}
		},
		{
			"type":"Feature",
			"geometry":{
				"type":"Point",
				"coordinates":[111.19401,34.773487]
			},
			"properties":{
				"date":"2020-01-26",
				"country":"中国",
				"province":"河南省",
				"city":"三门峡市",
				"confirmed":3,
				"suspected":0,
				"cured":0,
				"dead":0
			}
		},
		{
			"type":"Feature",
			"geometry":{
				"type":"Point",
				"coordinates":[112.522156,32.9926]
			},
			"properties":{
				"date":"2020-01-26",
				"country":"中国",
				"province":"河南省",
				"city":"南阳市",
				"confirmed":19,
				"suspected":0,
				"cured":0,
				"dead":1
			}
		},
		{
			"type":"Feature",
			"geometry":{
				"type":"Point",
				"coordinates":[115.65049,34.415466]
			},
			"properties":{
				"date":"2020-01-26",
				"country":"中国",
				"province":"河南省",
				"city":"商丘市",
				"confirmed":6,
				"suspected":0,
				"cured":0,
				"dead":0
			}
		},
		{
			"type":"Feature",
			"geometry":{
				"type":"Point",
				"coordinates":[114.08511,32.148945]
			},
			"properties":{
				"date":"2020-01-26",
				"country":"中国",
				"province":"河南省",
				"city":"信阳市",
				"confirmed":23,
				"suspected":0,
				"cured":0,
				"dead":0
			}
		},
		{
			"type":"Feature",
			"geometry":{
				"type":"Point",
				"coordinates":[114.69153,33.62726]
			},
			"properties":{
				"date":"2020-01-26",
				"country":"中国",
				"province":"河南省",
				"city":"周口市",
				"confirmed":11,
				"suspected":0,
				"cured":0,
				"dead":0
			}
		},
		{
			"type":"Feature",
			"geometry":{
				"type":"Point",
				"coordinates":[114.01611,33.01351]
			},
			"properties":{
				"date":"2020-01-26",
				"country":"中国",
				"province":"河南省",
				"city":"驻马店市",
				"confirmed":9,
				"suspected":0,
				"cured":0,
				"dead":0
			}
		},
		{
			"type":"Feature",
			"geometry":{
				"type":"Point",
				"coordinates":[114.29955,30.59521]
			},
			"properties":{
				"date":"2020-01-26",
				"country":"中国",
				"province":"湖北省",
				"city":"武汉市",
				"confirmed":698,
				"suspected":0,
				"cured":42,
				"dead":63
			}
		},
		{
			"type":"Feature",
			"geometry":{
				"type":"Point",
				"coordinates":[115.03361,30.20182]
			},
			"properties":{
				"date":"2020-01-26",
				"country":"中国",
				"province":"湖北省",
				"city":"黄石市",
				"confirmed":36,
				"suspected":0,
				"cured":0,
				"dead":1
			}
		},
		{
			"type":"Feature",
			"geometry":{
				"type":"Point",
				"coordinates":[110.79268,32.63139]
			},
			"properties":{
				"date":"2020-01-26",
				"country":"中国",
				"province":"湖北省",
				"city":"十堰市",
				"confirmed":40,
				"suspected":0,
				"cured":0,
				"dead":0
			}
		},
		{
			"type":"Feature",
			"geometry":{
				"type":"Point",
				"coordinates":[111.28034,30.69414]
			},
			"properties":{
				"date":"2020-01-26",
				"country":"中国",
				"province":"湖北省",
				"city":"宜昌市",
				"confirmed":31,
				"suspected":0,
				"cured":0,
				"dead":1
			}
		},
		{
			"type":"Feature",
			"geometry":{
				"type":"Point",
				"coordinates":[112.11592,32.010956]
			},
			"properties":{
				"date":"2020-01-26",
				"country":"中国",
				"province":"湖北省",
				"city":"襄阳市",
				"confirmed":36,
				"suspected":0,
				"cured":0,
				"dead":0
			}
		},
		{
			"type":"Feature",
			"geometry":{
				"type":"Point",
				"coordinates":[114.88996,30.393597]
			},
			"properties":{
				"date":"2020-01-26",
				"country":"中国",
				"province":"湖北省",
				"city":"鄂州市",
				"confirmed":20,
				"suspected":0,
				"cured":0,
				"dead":0
			}
		},
		{
			"type":"Feature",
			"geometry":{
				"type":"Point",
				"coordinates":[112.194176,31.037617]
			},
			"properties":{
				"date":"2020-01-26",
				"country":"中国",
				"province":"湖北省",
				"city":"荆门市",
				"confirmed":90,
				"suspected":0,
				"cured":0,
				"dead":3
			}
		},
		{
			"type":"Feature",
			"geometry":{
				"type":"Point",
				"coordinates":[113.910515,30.92728]
			},
			"properties":{
				"date":"2020-01-26",
				"country":"中国",
				"province":"湖北省",
				"city":"孝感市",
				"confirmed":100,
				"suspected":0,
				"cured":0,
				"dead":1
			}
		},
		{
			"type":"Feature",
			"geometry":{
				"type":"Point",
				"coordinates":[112.23329,30.337557]
			},
			"properties":{
				"date":"2020-01-26",
				"country":"中国",
				"province":"湖北省",
				"city":"荆州市",
				"confirmed":47,
				"suspected":0,
				"cured":0,
				"dead":2
			}
		},
		{
			"type":"Feature",
			"geometry":{
				"type":"Point",
				"coordinates":[114.866936,30.456064]
			},
			"properties":{
				"date":"2020-01-26",
				"country":"中国",
				"province":"湖北省",
				"city":"黄冈市",
				"confirmed":154,
				"suspected":0,
				"cured":2,
				"dead":4
			}
		},
		{
			"type":"Feature",
			"geometry":{
				"type":"Point",
				"coordinates":[114.3166,29.843666]
			},
			"properties":{
				"date":"2020-01-26",
				"country":"中国",
				"province":"湖北省",
				"city":"咸宁市",
				"confirmed":64,
				"suspected":0,
				"cured":0,
				"dead":0
			}
		},
		{
			"type":"Feature",
			"geometry":{
				"type":"Point",
				"coordinates":[113.376785,31.692175]
			},
			"properties":{
				"date":"2020-01-26",
				"country":"中国",
				"province":"湖北省",
				"city":"随州市",
				"confirmed":52,
				"suspected":0,
				"cured":0,
				"dead":0
			}
		},
		{
			"type":"Feature",
			"geometry":{
				"type":"Point",
				"coordinates":[109.48313,30.27477]
			},
			"properties":{
				"date":"2020-01-26",
				"country":"中国",
				"province":"湖北省",
				"city":"恩施土家族苗族自治州",
				"confirmed":25,
				"suspected":0,
				"cured":0,
				"dead":0
			}
		},
		{
			"type":"Feature",
			"geometry":{
				"type":"Point",
				"coordinates":[113.43702,30.330202]
			},
			"properties":{
				"date":"2020-01-26",
				"country":"中国",
				"province":"湖北省",
				"city":"仙桃市",
				"confirmed":12,
				"suspected":0,
				"cured":0,
				"dead":0
			}
		},
		{
			"type":"Feature",
			"geometry":{
				"type":"Point",
				"coordinates":[112.89342,30.404922]
			},
			"properties":{
				"date":"2020-01-26",
				"country":"中国",
				"province":"湖北省",
				"city":"潜江市",
				"confirmed":5,
				"suspected":0,
				"cured":0,
				"dead":1
			}
		},
		{
			"type":"Feature",
			"geometry":{
				"type":"Point",
				"coordinates":[113.15998,30.665644]
			},
			"properties":{
				"date":"2020-01-26",
				"country":"中国",
				"province":"湖北省",
				"city":"天门市",
				"confirmed":13,
				"suspected":0,
				"cured":0,
				"dead":0
			}
		},
		{
			"type":"Feature",
			"geometry":{
				"type":"Point",
				"coordinates":[112.93355,28.232206]
			},
			"properties":{
				"date":"2020-01-26",
				"country":"中国",
				"province":"湖南省",
				"city":"长沙市",
				"confirmed":22,
				"suspected":0,
				"cured":0,
				"dead":0
			}
		},
		{
			"type":"Feature",
			"geometry":{
				"type":"Point",
				"coordinates":[113.128174,27.83064]
			},
			"properties":{
				"date":"2020-01-26",
				"country":"中国",
				"province":"湖南省",
				"city":"株洲市",
				"confirmed":5,
				"suspected":0,
				"cured":0,
				"dead":0
			}
		},
		{
			"type":"Feature",
			"geometry":{
				"type":"Point",
				"coordinates":[112.93857,27.833048]
			},
			"properties":{
				"date":"2020-01-26",
				"country":"中国",
				"province":"湖南省",
				"city":"湘潭市",
				"confirmed":4,
				"suspected":0,
				"cured":0,
				"dead":0
			}
		},
		{
			"type":"Feature",
			"geometry":{
				"type":"Point",
				"coordinates":[112.566765,26.896885]
			},
			"properties":{
				"date":"2020-01-26",
				"country":"中国",
				"province":"湖南省",
				"city":"衡阳市",
				"confirmed":4,
				"suspected":0,
				"cured":0,
				"dead":0
			}
		},
		{
			"type":"Feature",
			"geometry":{
				"type":"Point",
				"coordinates":[111.46243,27.242247]
			},
			"properties":{
				"date":"2020-01-26",
				"country":"中国",
				"province":"湖南省",
				"city":"邵阳市",
				"confirmed":8,
				"suspected":0,
				"cured":0,
				"dead":0
			}
		},
		{
			"type":"Feature",
			"geometry":{
				"type":"Point",
				"coordinates":[113.12304,29.359756]
			},
			"properties":{
				"date":"2020-01-26",
				"country":"中国",
				"province":"湖南省",
				"city":"岳阳市",
				"confirmed":7,
				"suspected":0,
				"cured":0,
				"dead":0
			}
		},
		{
			"type":"Feature",
			"geometry":{
				"type":"Point",
				"coordinates":[111.69339,29.034624]
			},
			"properties":{
				"date":"2020-01-26",
				"country":"中国",
				"province":"湖南省",
				"city":"常德市",
				"confirmed":12,
				"suspected":0,
				"cured":0,
				"dead":0
			}
		},
		{
			"type":"Feature",
			"geometry":{
				"type":"Point",
				"coordinates":[112.34929,28.55695]
			},
			"properties":{
				"date":"2020-01-26",
				"country":"中国",
				"province":"湖南省",
				"city":"益阳市",
				"confirmed":7,
				"suspected":0,
				"cured":0,
				"dead":0
			}
		},
		{
			"type":"Feature",
			"geometry":{
				"type":"Point",
				"coordinates":[113.00949,25.773558]
			},
			"properties":{
				"date":"2020-01-26",
				"country":"中国",
				"province":"湖南省",
				"city":"郴州市",
				"confirmed":6,
				"suspected":0,
				"cured":0,
				"dead":0
			}
		},
		{
			"type":"Feature",
			"geometry":{
				"type":"Point",
				"coordinates":[111.60776,26.423185]
			},
			"properties":{
				"date":"2020-01-26",
				"country":"中国",
				"province":"湖南省",
				"city":"永州市",
				"confirmed":4,
				"suspected":0,
				"cured":0,
				"dead":0
			}
		},
		{
			"type":"Feature",
			"geometry":{
				"type":"Point",
				"coordinates":[109.99731,27.572607]
			},
			"properties":{
				"date":"2020-01-26",
				"country":"中国",
				"province":"湖南省",
				"city":"怀化市",
				"confirmed":11,
				"suspected":0,
				"cured":0,
				"dead":0
			}
		},
		{
			"type":"Feature",
			"geometry":{
				"type":"Point",
				"coordinates":[111.98948,27.700611]
			},
			"properties":{
				"date":"2020-01-26",
				"country":"中国",
				"province":"湖南省",
				"city":"娄底市",
				"confirmed":7,
				"suspected":0,
				"cured":0,
				"dead":0
			}
		},
		{
			"type":"Feature",
			"geometry":{
				"type":"Point",
				"coordinates":[109.73427,28.31509]
			},
			"properties":{
				"date":"2020-01-26",
				"country":"中国",
				"province":"湖南省",
				"city":"湘西土家族苗族自治州",
				"confirmed":3,
				"suspected":0,
				"cured":0,
				"dead":0
			}
		},
		{
			"type":"Feature",
			"geometry":{
				"type":"Point",
				"coordinates":[113.25967,23.131777]
			},
			"properties":{
				"date":"2020-01-26",
				"country":"中国",
				"province":"广东省",
				"city":"广州市",
				"confirmed":39,
				"suspected":0,
				"cured":0,
				"dead":0
			}
		},
		{
			"type":"Feature",
			"geometry":{
				"type":"Point",
				"coordinates":[113.59181,24.81316]
			},
			"properties":{
				"date":"2020-01-26",
				"country":"中国",
				"province":"广东省",
				"city":"韶关市",
				"confirmed":4,
				"suspected":0,
				"cured":0,
				"dead":0
			}
		},
		{
			"type":"Feature",
			"geometry":{
				"type":"Point",
				"coordinates":[114.05289,22.545517]
			},
			"properties":{
				"date":"2020-01-26",
				"country":"中国",
				"province":"广东省",
				"city":"深圳市",
				"confirmed":36,
				"suspected":0,
				"cured":2,
				"dead":0
			}
		},
		{
			"type":"Feature",
			"geometry":{
				"type":"Point",
				"coordinates":[113.57096,22.273914]
			},
			"properties":{
				"date":"2020-01-26",
				"country":"中国",
				"province":"广东省",
				"city":"珠海市",
				"confirmed":12,
				"suspected":0,
				"cured":0,
				"dead":0
			}
		},
		{
			"type":"Feature",
			"geometry":{
				"type":"Point",
				"coordinates":[116.67753,23.355959]
			},
			"properties":{
				"date":"2020-01-26",
				"country":"中国",
				"province":"广东省",
				"city":"汕头市",
				"confirmed":2,
				"suspected":0,
				"cured":0,
				"dead":0
			}
		},
		{
			"type":"Feature",
			"geometry":{
				"type":"Point",
				"coordinates":[113.116516,23.024452]
			},
			"properties":{
				"date":"2020-01-26",
				"country":"中国",
				"province":"广东省",
				"city":"佛山市",
				"confirmed":14,
				"suspected":0,
				"cured":0,
				"dead":0
			}
		},
		{
			"type":"Feature",
			"geometry":{
				"type":"Point",
				"coordinates":[110.35451,21.273281]
			},
			"properties":{
				"date":"2020-01-26",
				"country":"中国",
				"province":"广东省",
				"city":"湛江市",
				"confirmed":5,
				"suspected":0,
				"cured":0,
				"dead":0
			}
		},
		{
			"type":"Feature",
			"geometry":{
				"type":"Point",
				"coordinates":[112.45975,23.049421]
			},
			"properties":{
				"date":"2020-01-26",
				"country":"中国",
				"province":"广东省",
				"city":"肇庆市",
				"confirmed":4,
				"suspected":0,
				"cured":0,
				"dead":0
			}
		},
		{
			"type":"Feature",
			"geometry":{
				"type":"Point",
				"coordinates":[114.41203,23.1132]
			},
			"properties":{
				"date":"2020-01-26",
				"country":"中国",
				"province":"广东省",
				"city":"惠州市",
				"confirmed":8,
				"suspected":0,
				"cured":0,
				"dead":0
			}
		},
		{
			"type":"Feature",
			"geometry":{
				"type":"Point",
				"coordinates":[116.11817,24.290928]
			},
			"properties":{
				"date":"2020-01-26",
				"country":"中国",
				"province":"广东省",
				"city":"梅州市",
				"confirmed":1,
				"suspected":0,
				"cured":0,
				"dead":0
			}
		},
		{
			"type":"Feature",
			"geometry":{
				"type":"Point",
				"coordinates":[115.370056,22.788235]
			},
			"properties":{
				"date":"2020-01-26",
				"country":"中国",
				"province":"广东省",
				"city":"汕尾市",
				"confirmed":1,
				"suspected":0,
				"cured":0,
				"dead":0
			}
		},
		{
			"type":"Feature",
			"geometry":{
				"type":"Point",
				"coordinates":[111.97693,21.860931]
			},
			"properties":{
				"date":"2020-01-26",
				"country":"中国",
				"province":"广东省",
				"city":"阳江市",
				"confirmed":8,
				"suspected":0,
				"cured":0,
				"dead":0
			}
		},
		{
			"type":"Feature",
			"geometry":{
				"type":"Point",
				"coordinates":[113.050514,23.68446]
			},
			"properties":{
				"date":"2020-01-26",
				"country":"中国",
				"province":"广东省",
				"city":"清远市",
				"confirmed":3,
				"suspected":0,
				"cured":0,
				"dead":0
			}
		},
		{
			"type":"Feature",
			"geometry":{
				"type":"Point",
				"coordinates":[113.7468,23.023724]
			},
			"properties":{
				"date":"2020-01-26",
				"country":"中国",
				"province":"广东省",
				"city":"东莞市",
				"confirmed":2,
				"suspected":0,
				"cured":0,
				"dead":0
			}
		},
		{
			"type":"Feature",
			"geometry":{
				"type":"Point",
				"coordinates":[113.38752,22.51869]
			},
			"properties":{
				"date":"2020-01-26",
				"country":"中国",
				"province":"广东省",
				"city":"中山市",
				"confirmed":4,
				"suspected":0,
				"cured":0,
				"dead":0
			}
		},
		{
			"type":"Feature",
			"geometry":{
				"type":"Point",
				"coordinates":[116.367294,23.552097]
			},
			"properties":{
				"date":"2020-01-26",
				"country":"中国",
				"province":"广东省",
				"city":"揭阳市",
				"confirmed":3,
				"suspected":0,
				"cured":0,
				"dead":0
			}
		},
		{
			"type":"Feature",
			"geometry":{
				"type":"Point",
				"coordinates":[108.36293,22.818985]
			},
			"properties":{
				"date":"2020-01-26",
				"country":"中国",
				"province":"广西壮族自治区",
				"city":"南宁市",
				"confirmed":5,
				"suspected":0,
				"cured":0,
				"dead":0
			}
		},
		{
			"type":"Feature",
			"geometry":{
				"type":"Point",
				"coordinates":[109.4234,24.328402]
			},
			"properties":{
				"date":"2020-01-26",
				"country":"中国",
				"province":"广西壮族自治区",
				"city":"柳州市",
				"confirmed":6,
				"suspected":0,
				"cured":0,
				"dead":0
			}
		},
		{
			"type":"Feature",
			"geometry":{
				"type":"Point",
				"coordinates":[110.192406,25.239817]
			},
			"properties":{
				"date":"2020-01-26",
				"country":"中国",
				"province":"广西壮族自治区",
				"city":"桂林市",
				"confirmed":14,
				"suspected":0,
				"cured":0,
				"dead":0
			}
		},
		{
			"type":"Feature",
			"geometry":{
				"type":"Point",
				"coordinates":[111.273895,23.479492]
			},
			"properties":{
				"date":"2020-01-26",
				"country":"中国",
				"province":"广西壮族自治区",
				"city":"梧州市",
				"confirmed":2,
				"suspected":0,
				"cured":0,
				"dead":0
			}
		},
		{
			"type":"Feature",
			"geometry":{
				"type":"Point",
				"coordinates":[109.11571,21.483389]
			},
			"properties":{
				"date":"2020-01-26",
				"country":"中国",
				"province":"广西壮族自治区",
				"city":"北海市",
				"confirmed":9,
				"suspected":0,
				"cured":0,
				"dead":0
			}
		},
		{
			"type":"Feature",
			"geometry":{
				"type":"Point",
				"coordinates":[108.350006,21.689186]
			},
			"properties":{
				"date":"2020-01-26",
				"country":"中国",
				"province":"广西壮族自治区",
				"city":"防城港市",
				"confirmed":3,
				"suspected":0,
				"cured":0,
				"dead":0
			}
		},
		{
			"type":"Feature",
			"geometry":{
				"type":"Point",
				"coordinates":[110.177536,22.656504]
			},
			"properties":{
				"date":"2020-01-26",
				"country":"中国",
				"province":"广西壮族自治区",
				"city":"玉林市",
				"confirmed":2,
				"suspected":0,
				"cured":0,
				"dead":0
			}
		},
		{
			"type":"Feature",
			"geometry":{
				"type":"Point",
				"coordinates":[106.61459,23.905403]
			},
			"properties":{
				"date":"2020-01-26",
				"country":"中国",
				"province":"广西壮族自治区",
				"city":"百色市",
				"confirmed":2,
				"suspected":0,
				"cured":0,
				"dead":0
			}
		},
		{
			"type":"Feature",
			"geometry":{
				"type":"Point",
				"coordinates":[108.08075,24.695751]
			},
			"properties":{
				"date":"2020-01-26",
				"country":"中国",
				"province":"广西壮族自治区",
				"city":"河池市",
				"confirmed":3,
				"suspected":0,
				"cured":0,
				"dead":0
			}
		},
		{
			"type":"Feature",
			"geometry":{
				"type":"Point",
				"coordinates":[110.31466,20.040276]
			},
			"properties":{
				"date":"2020-01-26",
				"country":"中国",
				"province":"海南省",
				"city":"海口市",
				"confirmed":6,
				"suspected":0,
				"cured":0,
				"dead":0
			}
		},
		{
			"type":"Feature",
			"geometry":{
				"type":"Point",
				"coordinates":[109.50792,18.254705]
			},
			"properties":{
				"date":"2020-01-26",
				"country":"中国",
				"province":"海南省",
				"city":"三亚市",
				"confirmed":10,
				"suspected":0,
				"cured":0,
				"dead":0
			}
		},
		{
			"type":"Feature",
			"geometry":{
				"type":"Point",
				"coordinates":[109.163345,19.638586]
			},
			"properties":{
				"date":"2020-01-26",
				"country":"中国",
				"province":"海南省",
				"city":"儋州市",
				"confirmed":4,
				"suspected":0,
				"cured":0,
				"dead":0
			}
		},
		{
			"type":"Feature",
			"geometry":{
				"type":"Point",
				"coordinates":[110.391914,18.72861]
			},
			"properties":{
				"date":"2020-01-26",
				"country":"中国",
				"province":"海南省",
				"city":"万宁市",
				"confirmed":7,
				"suspected":0,
				"cured":0,
				"dead":0
			}
		},
		{
			"type":"Feature",
			"geometry":{
				"type":"Point",
				"coordinates":[110.002754,19.740295]
			},
			"properties":{
				"date":"2020-01-26",
				"country":"中国",
				"province":"海南省",
				"city":"澄迈县",
				"confirmed":2,
				"suspected":0,
				"cured":0,
				"dead":0
			}
		},
		{
			"type":"Feature",
			"geometry":{
				"type":"Point",
				"coordinates":[109.68683,19.915312]
			},
			"properties":{
				"date":"2020-01-26",
				"country":"中国",
				"province":"海南省",
				"city":"临高县",
				"confirmed":1,
				"suspected":0,
				"cured":0,
				"dead":0
			}
		},
		{
			"type":"Feature",
			"geometry":{
				"type":"Point",
				"coordinates":[110.03372,18.507626]
			},
			"properties":{
				"date":"2020-01-26",
				"country":"中国",
				"province":"海南省",
				"city":"陵水黎族自治县",
				"confirmed":1,
				"suspected":0,
				"cured":0,
				"dead":0
			}
		},
		{
			"type":"Feature",
			"geometry":{
				"type":"Point",
				"coordinates":[106.54385,29.705496]
			},
			"properties":{
				"date":"2020-01-26",
				"country":"中国",
				"province":"重庆市",
				"city":"两江新区",
				"confirmed":7,
				"suspected":0,
				"cured":0,
				"dead":0
			}
		},
		{
			"type":"Feature",
			"geometry":{
				"type":"Point",
				"coordinates":[108.40441,30.810162]
			},
			"properties":{
				"date":"2020-01-26",
				"country":"中国",
				"province":"重庆市",
				"city":"万州区",
				"confirmed":14,
				"suspected":0,
				"cured":0,
				"dead":0
			}
		},
		{
			"type":"Feature",
			"geometry":{
				"type":"Point",
				"coordinates":[107.38537,29.70548]
			},
			"properties":{
				"date":"2020-01-26",
				"country":"中国",
				"province":"重庆市",
				"city":"涪陵区",
				"confirmed":1,
				"suspected":0,
				"cured":0,
				"dead":0
			}
		},
		{
			"type":"Feature",
			"geometry":{
				"type":"Point",
				"coordinates":[106.4781,29.48699]
			},
			"properties":{
				"date":"2020-01-26",
				"country":"中国",
				"province":"重庆市",
				"city":"大渡口区",
				"confirmed":6,
				"suspected":0,
				"cured":0,
				"dead":0
			}
		},
		{
			"type":"Feature",
			"geometry":{
				"type":"Point",
				"coordinates":[106.570305,29.609468]
			},
			"properties":{
				"date":"2020-01-26",
				"country":"中国",
				"province":"重庆市",
				"city":"江北区",
				"confirmed":3,
				"suspected":0,
				"cured":0,
				"dead":0
			}
		},
		{
			"type":"Feature",
			"geometry":{
				"type":"Point",
				"coordinates":[106.50719,29.504969]
			},
			"properties":{
				"date":"2020-01-26",
				"country":"中国",
				"province":"重庆市",
				"city":"九龙坡区",
				"confirmed":4,
				"suspected":0,
				"cured":0,
				"dead":0
			}
		},
		{
			"type":"Feature",
			"geometry":{
				"type":"Point",
				"coordinates":[106.64725,29.03128]
			},
			"properties":{
				"date":"2020-01-26",
				"country":"中国",
				"province":"重庆市",
				"city":"綦江区",
				"confirmed":1,
				"suspected":0,
				"cured":0,
				"dead":0
			}
		},
		{
			"type":"Feature",
			"geometry":{
				"type":"Point",
				"coordinates":[105.718376,29.7095]
			},
			"properties":{
				"date":"2020-01-26",
				"country":"中国",
				"province":"重庆市",
				"city":"大足区",
				"confirmed":1,
				"suspected":0,
				"cured":0,
				"dead":0
			}
		},
		{
			"type":"Feature",
			"geometry":{
				"type":"Point",
				"coordinates":[106.62726,29.721031]
			},
			"properties":{
				"date":"2020-01-26",
				"country":"中国",
				"province":"重庆市",
				"city":"渝北区",
				"confirmed":5,
				"suspected":0,
				"cured":0,
				"dead":0
			}
		},
		{
			"type":"Feature",
			"geometry":{
				"type":"Point",
				"coordinates":[106.53727,29.4052]
			},
			"properties":{
				"date":"2020-01-26",
				"country":"中国",
				"province":"重庆市",
				"city":"巴南区",
				"confirmed":1,
				"suspected":0,
				"cured":0,
				"dead":0
			}
		},
		{
			"type":"Feature",
			"geometry":{
				"type":"Point",
				"coordinates":[107.07654,29.86017]
			},
			"properties":{
				"date":"2020-01-26",
				"country":"中国",
				"province":"重庆市",
				"city":"长寿区",
				"confirmed":6,
				"suspected":0,
				"cured":0,
				"dead":0
			}
		},
		{
			"type":"Feature",
			"geometry":{
				"type":"Point",
				"coordinates":[106.25525,29.293055]
			},
			"properties":{
				"date":"2020-01-26",
				"country":"中国",
				"province":"重庆市",
				"city":"江津区",
				"confirmed":2,
				"suspected":0,
				"cured":0,
				"dead":0
			}
		},
		{
			"type":"Feature",
			"geometry":{
				"type":"Point",
				"coordinates":[106.272194,29.975042]
			},
			"properties":{
				"date":"2020-01-26",
				"country":"中国",
				"province":"重庆市",
				"city":"合川区",
				"confirmed":3,
				"suspected":0,
				"cured":0,
				"dead":0
			}
		},
		{
			"type":"Feature",
			"geometry":{
				"type":"Point",
				"coordinates":[105.92351,29.35909]
			},
			"properties":{
				"date":"2020-01-26",
				"country":"中国",
				"province":"重庆市",
				"city":"永川区",
				"confirmed":3,
				"suspected":0,
				"cured":0,
				"dead":0
			}
		},
		{
			"type":"Feature",
			"geometry":{
				"type":"Point",
				"coordinates":[106.22323,29.594995]
			},
			"properties":{
				"date":"2020-01-26",
				"country":"中国",
				"province":"重庆市",
				"city":"璧山区",
				"confirmed":3,
				"suspected":0,
				"cured":0,
				"dead":0
			}
		},
		{
			"type":"Feature",
			"geometry":{
				"type":"Point",
				"coordinates":[106.05309,29.846916]
			},
			"properties":{
				"date":"2020-01-26",
				"country":"中国",
				"province":"重庆市",
				"city":"铜梁区",
				"confirmed":1,
				"suspected":0,
				"cured":0,
				"dead":0
			}
		},
		{
			"type":"Feature",
			"geometry":{
				"type":"Point",
				"coordinates":[105.837425,30.19378]
			},
			"properties":{
				"date":"2020-01-26",
				"country":"中国",
				"province":"重庆市",
				"city":"潼南区",
				"confirmed":2,
				"suspected":0,
				"cured":0,
				"dead":0
			}
		},
		{
			"type":"Feature",
			"geometry":{
				"type":"Point",
				"coordinates":[108.38838,31.162766]
			},
			"properties":{
				"date":"2020-01-26",
				"country":"中国",
				"province":"重庆市",
				"city":"开州区",
				"confirmed":7,
				"suspected":0,
				"cured":0,
				"dead":0
			}
		},
		{
			"type":"Feature",
			"geometry":{
				"type":"Point",
				"coordinates":[107.76517,30.656807]
			},
			"properties":{
				"date":"2020-01-26",
				"country":"中国",
				"province":"重庆市",
				"city":"梁平区",
				"confirmed":1,
				"suspected":0,
				"cured":0,
				"dead":0
			}
		},
		{
			"type":"Feature",
			"geometry":{
				"type":"Point",
				"coordinates":[108.66062,31.949976]
			},
			"properties":{
				"date":"2020-01-26",
				"country":"中国",
				"province":"重庆市",
				"city":"城口县",
				"confirmed":1,
				"suspected":0,
				"cured":0,
				"dead":0
			}
		},
		{
			"type":"Feature",
			"geometry":{
				"type":"Point",
				"coordinates":[107.72654,29.866047]
			},
			"properties":{
				"date":"2020-01-26",
				"country":"中国",
				"province":"重庆市",
				"city":"丰都县",
				"confirmed":3,
				"suspected":0,
				"cured":0,
				"dead":0
			}
		},
		{
			"type":"Feature",
			"geometry":{
				"type":"Point",
				"coordinates":[107.32844,30.330126]
			},
			"properties":{
				"date":"2020-01-26",
				"country":"中国",
				"province":"重庆市",
				"city":"垫江县",
				"confirmed":4,
				"suspected":0,
				"cured":0,
				"dead":0
			}
		},
		{
			"type":"Feature",
			"geometry":{
				"type":"Point",
				"coordinates":[108.03346,30.301916]
			},
			"properties":{
				"date":"2020-01-26",
				"country":"中国",
				"province":"重庆市",
				"city":"忠县",
				"confirmed":6,
				"suspected":0,
				"cured":0,
				"dead":0
			}
		},
		{
			"type":"Feature",
			"geometry":{
				"type":"Point",
				"coordinates":[108.69261,30.932922]
			},
			"properties":{
				"date":"2020-01-26",
				"country":"中国",
				"province":"重庆市",
				"city":"云阳县",
				"confirmed":8,
				"suspected":0,
				"cured":0,
				"dead":0
			}
		},
		{
			"type":"Feature",
			"geometry":{
				"type":"Point",
				"coordinates":[109.45901,31.020706]
			},
			"properties":{
				"date":"2020-01-26",
				"country":"中国",
				"province":"重庆市",
				"city":"奉节县",
				"confirmed":3,
				"suspected":0,
				"cured":0,
				"dead":0
			}
		},
		{
			"type":"Feature",
			"geometry":{
				"type":"Point",
				"coordinates":[109.87426,31.077145]
			},
			"properties":{
				"date":"2020-01-26",
				"country":"中国",
				"province":"重庆市",
				"city":"巫山县",
				"confirmed":5,
				"suspected":0,
				"cured":0,
				"dead":0
			}
		},
		{
			"type":"Feature",
			"geometry":{
				"type":"Point",
				"coordinates":[109.565254,31.400902]
			},
			"properties":{
				"date":"2020-01-26",
				"country":"中国",
				"province":"重庆市",
				"city":"巫溪县",
				"confirmed":5,
				"suspected":0,
				"cured":0,
				"dead":0
			}
		},
		{
			"type":"Feature",
			"geometry":{
				"type":"Point",
				"coordinates":[108.10942,30.00225]
			},
			"properties":{
				"date":"2020-01-26",
				"country":"中国",
				"province":"重庆市",
				"city":"石柱土家族自治县",
				"confirmed":3,
				"suspected":0,
				"cured":0,
				"dead":0
			}
		},
		{
			"type":"Feature",
			"geometry":{
				"type":"Point",
				"coordinates":[109.00253,28.451052]
			},
			"properties":{
				"date":"2020-01-26",
				"country":"中国",
				"province":"重庆市",
				"city":"秀山土家族苗族自治县",
				"confirmed":1,
				"suspected":0,
				"cured":0,
				"dead":0
			}
		},
		{
			"type":"Feature",
			"geometry":{
				"type":"Point",
				"coordinates":[104.07248,30.652313]
			},
			"properties":{
				"date":"2020-01-26",
				"country":"中国",
				"province":"四川省",
				"city":"成都市",
				"confirmed":33,
				"suspected":0,
				"cured":0,
				"dead":0
			}
		},
		{
			"type":"Feature",
			"geometry":{
				"type":"Point",
				"coordinates":[104.77531,29.342258]
			},
			"properties":{
				"date":"2020-01-26",
				"country":"中国",
				"province":"四川省",
				"city":"自贡市",
				"confirmed":2,
				"suspected":0,
				"cured":0,
				"dead":0
			}
		},
		{
			"type":"Feature",
			"geometry":{
				"type":"Point",
				"coordinates":[105.43841,28.874838]
			},
			"properties":{
				"date":"2020-01-26",
				"country":"中国",
				"province":"四川省",
				"city":"泸州市",
				"confirmed":3,
				"suspected":0,
				"cured":0,
				"dead":0
			}
		},
		{
			"type":"Feature",
			"geometry":{
				"type":"Point",
				"coordinates":[104.39532,31.12894]
			},
			"properties":{
				"date":"2020-01-26",
				"country":"中国",
				"province":"四川省",
				"city":"德阳市",
				"confirmed":1,
				"suspected":0,
				"cured":0,
				"dead":0
			}
		},
		{
			"type":"Feature",
			"geometry":{
				"type":"Point",
				"coordinates":[104.676384,31.470078]
			},
			"properties":{
				"date":"2020-01-26",
				"country":"中国",
				"province":"四川省",
				"city":"绵阳市",
				"confirmed":7,
				"suspected":0,
				"cured":0,
				"dead":0
			}
		},
		{
			"type":"Feature",
			"geometry":{
				"type":"Point",
				"coordinates":[105.58959,30.535595]
			},
			"properties":{
				"date":"2020-01-26",
				"country":"中国",
				"province":"四川省",
				"city":"遂宁市",
				"confirmed":2,
				"suspected":0,
				"cured":0,
				"dead":0
			}
		},
		{
			"type":"Feature",
			"geometry":{
				"type":"Point",
				"coordinates":[105.05477,29.582777]
			},
			"properties":{
				"date":"2020-01-26",
				"country":"中国",
				"province":"四川省",
				"city":"内江市",
				"confirmed":1,
				"suspected":0,
				"cured":0,
				"dead":0
			}
		},
		{
			"type":"Feature",
			"geometry":{
				"type":"Point",
				"coordinates":[103.763794,29.554756]
			},
			"properties":{
				"date":"2020-01-26",
				"country":"中国",
				"province":"四川省",
				"city":"乐山市",
				"confirmed":1,
				"suspected":0,
				"cured":0,
				"dead":0
			}
		},
		{
			"type":"Feature",
			"geometry":{
				"type":"Point",
				"coordinates":[103.48283,29.603895]
			},
			"properties":{
				"date":"2020-01-26",
				"country":"中国",
				"province":"四川省",
				"city":"峨眉山市",
				"confirmed":1,
				"suspected":0,
				"cured":0,
				"dead":0
			}
		},
		{
			"type":"Feature",
			"geometry":{
				"type":"Point",
				"coordinates":[106.10698,30.840082]
			},
			"properties":{
				"date":"2020-01-26",
				"country":"中国",
				"province":"四川省",
				"city":"南充市",
				"confirmed":2,
				"suspected":0,
				"cured":0,
				"dead":0
			}
		},
		{
			"type":"Feature",
			"geometry":{
				"type":"Point",
				"coordinates":[104.64062,28.755129]
			},
			"properties":{
				"date":"2020-01-26",
				"country":"中国",
				"province":"四川省",
				"city":"宜宾市",
				"confirmed":1,
				"suspected":0,
				"cured":0,
				"dead":0
			}
		},
		{
			"type":"Feature",
			"geometry":{
				"type":"Point",
				"coordinates":[106.62921,30.458776]
			},
			"properties":{
				"date":"2020-01-26",
				"country":"中国",
				"province":"四川省",
				"city":"广安市",
				"confirmed":6,
				"suspected":0,
				"cured":0,
				"dead":0
			}
		},
		{
			"type":"Feature",
			"geometry":{
				"type":"Point",
				"coordinates":[107.46335,31.210747]
			},
			"properties":{
				"date":"2020-01-26",
				"country":"中国",
				"province":"四川省",
				"city":"达州市",
				"confirmed":3,
				"suspected":0,
				"cured":0,
				"dead":0
			}
		},
		{
			"type":"Feature",
			"geometry":{
				"type":"Point",
				"coordinates":[103.041016,30.01348]
			},
			"properties":{
				"date":"2020-01-26",
				"country":"中国",
				"province":"四川省",
				"city":"雅安市",
				"confirmed":1,
				"suspected":0,
				"cured":0,
				"dead":0
			}
		},
		{
			"type":"Feature",
			"geometry":{
				"type":"Point",
				"coordinates":[104.625595,30.131548]
			},
			"properties":{
				"date":"2020-01-26",
				"country":"中国",
				"province":"四川省",
				"city":"资阳市",
				"confirmed":2,
				"suspected":0,
				"cured":0,
				"dead":0
			}
		},
		{
			"type":"Feature",
			"geometry":{
				"type":"Point",
				"coordinates":[101.96048,30.052221]
			},
			"properties":{
				"date":"2020-01-26",
				"country":"中国",
				"province":"四川省",
				"city":"甘孜藏族自治州",
				"confirmed":2,
				"suspected":0,
				"cured":0,
				"dead":0
			}
		},
		{
			"type":"Feature",
			"geometry":{
				"type":"Point",
				"coordinates":[102.2655,27.885132]
			},
			"properties":{
				"date":"2020-01-26",
				"country":"中国",
				"province":"四川省",
				"city":"凉山彝族自治州",
				"confirmed":1,
				"suspected":0,
				"cured":0,
				"dead":0
			}
		},
		{
			"type":"Feature",
			"geometry":{
				"type":"Point",
				"coordinates":[106.626434,26.65127]
			},
			"properties":{
				"date":"2020-01-26",
				"country":"中国",
				"province":"贵州省",
				"city":"贵阳市",
				"confirmed":1,
				"suspected":1,
				"cured":0,
				"dead":0
			}
		},
		{
			"type":"Feature",
			"geometry":{
				"type":"Point",
				"coordinates":[104.82846,26.59672]
			},
			"properties":{
				"date":"2020-01-26",
				"country":"中国",
				"province":"贵州省",
				"city":"六盘水市",
				"confirmed":1,
				"suspected":0,
				"cured":0,
				"dead":0
			}
		},
		{
			"type":"Feature",
			"geometry":{
				"type":"Point",
				"coordinates":[109.185425,27.734774]
			},
			"properties":{
				"date":"2020-01-26",
				"country":"中国",
				"province":"贵州省",
				"city":"铜仁市",
				"confirmed":2,
				"suspected":0,
				"cured":0,
				"dead":0
			}
		},
		{
			"type":"Feature",
			"geometry":{
				"type":"Point",
				"coordinates":[106.02832,27.011969]
			},
			"properties":{
				"date":"2020-01-26",
				"country":"中国",
				"province":"贵州省",
				"city":"黔西南布依族苗族自治州",
				"confirmed":1,
				"suspected":0,
				"cured":0,
				"dead":0
			}
		},
		{
			"type":"Feature",
			"geometry":{
				"type":"Point",
				"coordinates":[107.51784,26.257738]
			},
			"properties":{
				"date":"2020-01-26",
				"country":"中国",
				"province":"贵州省",
				"city":"黔南布依族苗族自治州",
				"confirmed":2,
				"suspected":2,
				"cured":0,
				"dead":0
			}
		},
		{
			"type":"Feature",
			"geometry":{
				"type":"Point",
				"coordinates":[102.844604,24.870794]
			},
			"properties":{
				"date":"2020-01-26",
				"country":"中国",
				"province":"云南省",
				"city":"昆明市",
				"confirmed":7,
				"suspected":0,
				"cured":0,
				"dead":0
			}
		},
		{
			"type":"Feature",
			"geometry":{
				"type":"Point",
				"coordinates":[103.793976,25.493101]
			},
			"properties":{
				"date":"2020-01-26",
				"country":"中国",
				"province":"云南省",
				"city":"曲靖市",
				"confirmed":1,
				"suspected":0,
				"cured":0,
				"dead":0
			}
		},
		{
			"type":"Feature",
			"geometry":{
				"type":"Point",
				"coordinates":[102.545746,24.355064]
			},
			"properties":{
				"date":"2020-01-26",
				"country":"中国",
				"province":"云南省",
				"city":"玉溪市",
				"confirmed":1,
				"suspected":0,
				"cured":0,
				"dead":0
			}
		},
		{
			"type":"Feature",
			"geometry":{
				"type":"Point",
				"coordinates":[99.16979,25.136173]
			},
			"properties":{
				"date":"2020-01-26",
				"country":"中国",
				"province":"云南省",
				"city":"保山市",
				"confirmed":2,
				"suspected":0,
				"cured":0,
				"dead":0
			}
		},
		{
			"type":"Feature",
			"geometry":{
				"type":"Point",
				"coordinates":[103.714905,27.341625]
			},
			"properties":{
				"date":"2020-01-26",
				"country":"中国",
				"province":"云南省",
				"city":"昭通市",
				"confirmed":1,
				"suspected":0,
				"cured":0,
				"dead":0
			}
		},
		{
			"type":"Feature",
			"geometry":{
				"type":"Point",
				"coordinates":[100.22487,26.858145]
			},
			"properties":{
				"date":"2020-01-26",
				"country":"中国",
				"province":"云南省",
				"city":"丽江市",
				"confirmed":2,
				"suspected":0,
				"cured":0,
				"dead":0
			}
		},
		{
			"type":"Feature",
			"geometry":{
				"type":"Point",
				"coordinates":[102.41946,23.371311]
			},
			"properties":{
				"date":"2020-01-26",
				"country":"中国",
				"province":"云南省",
				"city":"红河哈尼族彝族自治州",
				"confirmed":1,
				"suspected":0,
				"cured":0,
				"dead":0
			}
		},
		{
			"type":"Feature",
			"geometry":{
				"type":"Point",
				"coordinates":[100.795876,22.010159]
			},
			"properties":{
				"date":"2020-01-26",
				"country":"中国",
				"province":"云南省",
				"city":"西双版纳傣族自治州",
				"confirmed":1,
				"suspected":0,
				"cured":0,
				"dead":0
			}
		},
		{
			"type":"Feature",
			"geometry":{
				"type":"Point",
				"coordinates":[100.228905,25.594625]
			},
			"properties":{
				"date":"2020-01-26",
				"country":"中国",
				"province":"云南省",
				"city":"大理白族自治州",
				"confirmed":1,
				"suspected":0,
				"cured":0,
				"dead":0
			}
		},
		{
			"type":"Feature",
			"geometry":{
				"type":"Point",
				"coordinates":[98.58465,24.43547]
			},
			"properties":{
				"date":"2020-01-26",
				"country":"中国",
				"province":"云南省",
				"city":"德宏傣族景颇族自治州",
				"confirmed":2,
				"suspected":0,
				"cured":0,
				"dead":0
			}
		},
		{
			"type":"Feature",
			"geometry":{
				"type":"Point",
				"coordinates":[108.93534,34.342655]
			},
			"properties":{
				"date":"2020-01-26",
				"country":"中国",
				"province":"陕西省",
				"city":"西安市",
				"confirmed":12,
				"suspected":0,
				"cured":0,
				"dead":0
			}
		},
		{
			"type":"Feature",
			"geometry":{
				"type":"Point",
				"coordinates":[108.941284,34.897484]
			},
			"properties":{
				"date":"2020-01-26",
				"country":"中国",
				"province":"陕西省",
				"city":"铜川市",
				"confirmed":5,
				"suspected":0,
				"cured":0,
				"dead":0
			}
		},
		{
			"type":"Feature",
			"geometry":{
				"type":"Point",
				"coordinates":[108.70433,34.330643]
			},
			"properties":{
				"date":"2020-01-26",
				"country":"中国",
				"province":"陕西省",
				"city":"咸阳市",
				"confirmed":4,
				"suspected":0,
				"cured":0,
				"dead":0
			}
		},
		{
			"type":"Feature",
			"geometry":{
				"type":"Point",
				"coordinates":[109.50486,34.501328]
			},
			"properties":{
				"date":"2020-01-26",
				"country":"中国",
				"province":"陕西省",
				"city":"渭南市",
				"confirmed":1,
				"suspected":0,
				"cured":0,
				"dead":0
			}
		},
		{
			"type":"Feature",
			"geometry":{
				"type":"Point",
				"coordinates":[109.4846,36.585304]
			},
			"properties":{
				"date":"2020-01-26",
				"country":"中国",
				"province":"陕西省",
				"city":"延安市",
				"confirmed":2,
				"suspected":0,
				"cured":0,
				"dead":0
			}
		},
		{
			"type":"Feature",
			"geometry":{
				"type":"Point",
				"coordinates":[107.01848,33.06949]
			},
			"properties":{
				"date":"2020-01-26",
				"country":"中国",
				"province":"陕西省",
				"city":"汉中市",
				"confirmed":3,
				"suspected":0,
				"cured":0,
				"dead":0
			}
		},
		{
			"type":"Feature",
			"geometry":{
				"type":"Point",
				"coordinates":[109.02413,32.68687]
			},
			"properties":{
				"date":"2020-01-26",
				"country":"中国",
				"province":"陕西省",
				"city":"安康市",
				"confirmed":7,
				"suspected":0,
				"cured":0,
				"dead":0
			}
		},
		{
			"type":"Feature",
			"geometry":{
				"type":"Point",
				"coordinates":[109.91304,33.874004]
			},
			"properties":{
				"date":"2020-01-26",
				"country":"中国",
				"province":"陕西省",
				"city":"商洛市",
				"confirmed":1,
				"suspected":0,
				"cured":0,
				"dead":0
			}
		},
		{
			"type":"Feature",
			"geometry":{
				"type":"Point",
				"coordinates":[103.8316,36.061626]
			},
			"properties":{
				"date":"2020-01-26",
				"country":"中国",
				"province":"甘肃省",
				"city":"兰州市",
				"confirmed":8,
				"suspected":0,
				"cured":0,
				"dead":0
			}
		},
		{
			"type":"Feature",
			"geometry":{
				"type":"Point",
				"coordinates":[104.135185,36.54461]
			},
			"properties":{
				"date":"2020-01-26",
				"country":"中国",
				"province":"甘肃省",
				"city":"白银市",
				"confirmed":1,
				"suspected":0,
				"cured":0,
				"dead":0
			}
		},
		{
			"type":"Feature",
			"geometry":{
				"type":"Point",
				"coordinates":[100.448296,38.925163]
			},
			"properties":{
				"date":"2020-01-26",
				"country":"中国",
				"province":"甘肃省",
				"city":"张掖市",
				"confirmed":1,
				"suspected":0,
				"cured":0,
				"dead":0
			}
		},
		{
			"type":"Feature",
			"geometry":{
				"type":"Point",
				"coordinates":[104.62333,35.581142]
			},
			"properties":{
				"date":"2020-01-26",
				"country":"中国",
				"province":"甘肃省",
				"city":"定西市",
				"confirmed":1,
				"suspected":0,
				"cured":0,
				"dead":0
			}
		},
		{
			"type":"Feature",
			"geometry":{
				"type":"Point",
				"coordinates":[104.91912,33.402756]
			},
			"properties":{
				"date":"2020-01-26",
				"country":"中国",
				"province":"甘肃省",
				"city":"陇南市",
				"confirmed":1,
				"suspected":0,
				"cured":0,
				"dead":0
			}
		},
		{
			"type":"Feature",
			"geometry":{
				"type":"Point",
				"coordinates":[103.24077,35.604485]
			},
			"properties":{
				"date":"2020-01-26",
				"country":"中国",
				"province":"甘肃省",
				"city":"临夏回族自治州",
				"confirmed":2,
				"suspected":0,
				"cured":0,
				"dead":0
			}
		},
		{
			"type":"Feature",
			"geometry":{
				"type":"Point",
				"coordinates":[101.77607,36.617283]
			},
			"properties":{
				"date":"2020-01-26",
				"country":"中国",
				"province":"青海省",
				"city":"西宁市",
				"confirmed":4,
				"suspected":0,
				"cured":0,
				"dead":0
			}
		},
		{
			"type":"Feature",
			"geometry":{
				"type":"Point",
				"coordinates":[106.2276,38.486042]
			},
			"properties":{
				"date":"2020-01-26",
				"country":"中国",
				"province":"宁夏回族自治区",
				"city":"银川市",
				"confirmed":5,
				"suspected":0,
				"cured":0,
				"dead":0
			}
		},
		{
			"type":"Feature",
			"geometry":{
				"type":"Point",
				"coordinates":[106.2378,36.015984]
			},
			"properties":{
				"date":"2020-01-26",
				"country":"中国",
				"province":"宁夏回族自治区",
				"city":"固原市",
				"confirmed":1,
				"suspected":0,
				"cured":0,
				"dead":0
			}
		},
		{
			"type":"Feature",
			"geometry":{
				"type":"Point",
				"coordinates":[105.19323,37.499344]
			},
			"properties":{
				"date":"2020-01-26",
				"country":"中国",
				"province":"宁夏回族自治区",
				"city":"中卫市",
				"confirmed":1,
				"suspected":0,
				"cured":0,
				"dead":0
			}
		},
		{
			"type":"Feature",
			"geometry":{
				"type":"Point",
				"coordinates":[87.61515,43.82339]
			},
			"properties":{
				"date":"2020-01-26",
				"country":"中国",
				"province":"新疆维吾尔自治区",
				"city":"乌鲁木齐市",
				"confirmed":4,
				"suspected":0,
				"cured":0,
				"dead":0
			}
		},
		{
			"type":"Feature",
			"geometry":{
				"type":"Point",
				"coordinates":[81.32095,43.915546]
			},
			"properties":{
				"date":"2020-01-26",
				"country":"中国",
				"province":"新疆维吾尔自治区",
				"city":"伊犁哈萨克自治州",
				"confirmed":1,
				"suspected":0,
				"cured":0,
				"dead":0
			}
		},
		{
			"type":"Feature",
			"geometry":{
				"type":"Point",
				"coordinates":[120.84659,23.770826]
			},
			"properties":{
				"date":"2020-01-26",
				"country":"中国",
				"province":"台湾省",
				"city":"台湾",
				"confirmed":4,
				"suspected":0,
				"cured":0,
				"dead":0
			}
		},
		{
			"type":"Feature",
			"geometry":{
				"type":"Point",
				"coordinates":[114.127075,22.412231]
			},
			"properties":{
				"date":"2020-01-26",
				"country":"中国",
				"province":"香港特别行政区",
				"city":"香港",
				"confirmed":8,
				"suspected":0,
				"cured":0,
				"dead":0
			}
		},
		{
			"type":"Feature",
			"geometry":{
				"type":"Point",
				"coordinates":[113.54617,22.136623]
			},
			"properties":{
				"date":"2020-01-26",
				"country":"中国",
				"province":"澳门特别行政区",
				"city":"澳门",
				"confirmed":5,
				"suspected":0,
				"cured":0,
				"dead":0
			}
		}
	]
}